$GPGGA,070040.333,4740.4625,N,00934.9548,E,1,07,1.2,507.2,M,48.0,M,0.0,0000*76
$GPGSA,A,3,13,25,04,07,27,23,02,,,,,,3.9,1.2,3.6*3E
$GPRMC,070040.333,A,4740.4625,N,00934.9548,E,26.34,70.08,240708,,*0A
$GPGGA,070041.333,4740.4650,N,00934.9648,E,1,07,1.2,507.5,M,48.0,M,0.0,0000*71
$GPGSA,A,3,13,25,04,07,27,23,02,,,,,,3.9,1.2,3.6*3E
$GPRMC,070041.333,A,4740.4650,N,00934.9648,E,26.00,69.99,240708,,*0D
$GPGGA,070042.333,4740.4674,N,00934.9746,E,1,07,1.2,507.6,M,48.0,M,0.0,0000*78
$GPGSA,A,3,13,25,04,07,27,23,02,,,,,,3.9,1.2,3.6*3E
$GPRMC,070042.333,A,4740.4674,N,00934.9746,E,25.42,70.55,240708,,*0A
$GPGGA,070043.333,4740.4696,N,00934.9844,E,1,07,1.2,507.9,M,48.0,M,0.0,0000*77
$GPGSA,A,3,13,25,04,07,27,23,02,,,,,,3.9,1.2,3.6*3E
$GPRMC,070043.333,A,4740.4696,N,00934.9844,E,25.00,72.84,240708,,*02
$GPGGA,070044.333,4740.4713,N,00934.9943,E,1,07,1.2,508.4,M,48.0,M,0.0,0000*78
$GPGSA,A,3,13,25,04,07,27,23,02,,,,,,3.9,1.2,3.6*3E
$GPGSV,3,1,11,13,75,035,44,25,66,124,43,07,52,164,45,04,52,239,47*70
$GPGSV,3,2,11,27,50,175,43,23,41,063,46,02,40,292,47,08,21,189,*78
$GPGSV,3,3,11,16,12,048,33,20,11,119,31,10,10,298,00*4B
$GPRMC,070044.333,A,4740.4713,N,00934.9943,E,24.80,77.60,240708,,*09
$GPGGA,070045.333,4740.4724,N,00935.0043,E,1,07,1.2,508.7,M,48.0,M,0.0,0000*7F
$GPGSA,A,3,13,25,04,07,27,23,02,,,,,,3.9,1.2,3.6*3E
$GPRMC,070045.333,A,4740.4724,N,00935.0043,E,24.64,82.64,240708,,*09
$GPGGA,070046.333,4740.4729,N,00935.0144,E,1,07,1.2,508.7,M,48.0,M,0.0,0000*77
$GPGSA,A,3,13,25,04,07,27,23,02,,,,,,3.9,1.2,3.6*3E
$GPRMC,070046.333,A,4740.4729,N,00935.0144,E,24.65,87.70,240708,,*00
$GPGGA,070047.333,4740.4729,N,00935.0245,E,1,07,1.2,508.5,M,48.0,M,0.0,0000*76
$GPGSA,A,3,13,25,04,07,27,23,02,,,,,,3.9,1.2,3.6*3E
$GPRMC,070047.333,A,4740.4729,N,00935.0245,E,24.46,91.71,240708,,*04
$GPGGA,070048.333,4740.4725,N,00935.0345,E,1,07,1.2,508.5,M,48.0,M,0.0,0000*74
$GPGSA,A,3,13,25,04,07,27,23,02,,,,,,3.9,1.2,3.6*3E
$GPRMC,070048.333,A,4740.4725,N,00935.0345,E,24.15,93.47,240708,,*07
$GPGGA,070049.333,4740.4721,N,00935.0438,E,1,07,1.2,508.6,M,48.0,M,0.0,0000*7F
$GPGSA,A,3,13,25,04,07,27,23,02,,,,,,3.9,1.2,3.6*3E
$GPGSV,3,1,11,13,75,035,43,25,66,124,43,07,52,164,43,04,52,239,47*71
$GPGSV,3,2,11,27,50,175,42,23,41,063,46,02,40,292,47,08,21,189,*79
$GPGSV,3,3,11,16,12,048,38,20,10,119,41,10,10,298,00*46
$GPRMC,070049.333,A,4740.4721,N,00935.0438,E,21.74,93.72,240708,,*0B
$GPGGA,070050.333,4740.4717,N,00935.0517,E,1,07,1.2,508.5,M,48.0,M,0.0,0000*7D
$GPGSA,A,3,13,25,04,07,27,23,02,,,,,,3.9,1.2,3.6*3E
$GPRMC,070050.333,A,4740.4717,N,00935.0517,E,17.23,93.76,240708,,*09
$GPGGA,070051.333,4740.4713,N,00935.0576,E,1,07,1.2,508.5,M,48.0,M,0.0,0000*7F
$GPGSA,A,3,13,25,04,07,27,23,02,,,,,,3.9,1.2,3.6*3E
$GPRMC,070051.333,A,4740.4713,N,00935.0576,E,12.00,96.18,240708,,*02
$GPGGA,070052.332,4740.4706,N,00935.0615,E,1,07,1.2,508.5,M,48.0,M,0.0,0000*7F
$GPGSA,A,3,13,25,04,07,27,23,02,,,,,,3.9,1.2,3.6*3E
$GPRMC,070052.332,A,4740.4706,N,00935.0615,E,8.70,111.32,240708,,*08
$GPGGA,070053.332,4740.4694,N,00935.0640,E,1,07,1.2,508.5,M,48.0,M,0.0,0000*74
$GPGSA,A,3,13,25,04,07,27,23,02,,,,,,3.9,1.2,3.6*3E
$GPRMC,070053.332,A,4740.4694,N,00935.0640,E,7.01,131.22,240708,,*09
$GPGGA,070054.332,4740.4682,N,00935.0655,E,1,07,1.2,508.5,M,48.0,M,0.0,0000*70
$GPGSA,A,3,13,25,04,07,27,23,02,,,,,,3.9,1.2,3.6*3E
$GPGSV,3,1,11,13,75,035,41,25,66,124,42,07,52,164,45,04,52,239,45*76
$GPGSV,3,2,11,27,50,175,43,23,41,063,49,02,40,292,46,08,21,189,*76
$GPGSV,3,3,11,16,12,048,32,20,10,119,23,10,10,298,00*48
$GPRMC,070054.332,A,4740.4682,N,00935.0655,E,5.17,138.60,240708,,*07
$GPGGA,070055.332,4740.4673,N,00935.0662,E,1,07,1.2,508.6,M,48.0,M,0.0,0000*78
$GPGSA,A,3,13,25,04,07,27,23,02,,,,,,3.9,1.2,3.6*3E
$GPRMC,070055.332,A,4740.4673,N,00935.0662,E,2.35,140.28,240708,,*08
$GPGGA,070056.332,4740.4670,N,00935.0664,E,1,07,1.2,508.6,M,48.0,M,0.0,0000*7E
$GPGSA,A,3,13,25,04,07,27,23,02,,,,,,3.9,1.2,3.6*3E
$GPRMC,070056.332,A,4740.4670,N,00935.0664,E,0.00,,240708,,*1B
$GPGGA,070057.332,4740.4669,N,00935.0662,E,1,07,1.2,508.7,M,48.0,M,0.0,0000*70
$GPGSA,A,3,13,25,04,07,27,23,02,,,,,,3.9,1.2,3.6*3E
$GPRMC,070057.332,A,4740.4669,N,00935.0662,E,0.00,,240708,,*14
$GPGGA,070058.332,4740.4668,N,00935.0662,E,1,07,1.2,508.7,M,48.0,M,0.0,0000*7E
$GPGSA,A,3,13,25,04,07,27,23,02,,,,,,3.9,1.2,3.6*3E
$GPRMC,070058.332,A,4740.4668,N,00935.0662,E,0.00,,240708,,*1A
$GPGGA,070059.332,4740.4668,N,00935.0661,E,1,07,1.2,508.7,M,48.0,M,0.0,0000*7C
$GPGSA,A,3,13,25,04,07,27,23,02,,,,,,3.9,1.2,3.6*3E
$GPGSV,3,1,11,13,75,035,42,25,66,124,44,07,52,164,43,04,52,239,42*72
$GPGSV,3,2,11,27,50,175,41,23,41,063,48,02,40,292,48,08,21,189,*7B
$GPGSV,3,3,11,16,12,048,40,20,10,119,00,10,10,298,39*46
$GPRMC,070059.332,A,4740.4668,N,00935.0661,E,0.00,,240708,,*18
$GPGGA,070100.332,4740.4668,N,00935.0660,E,1,07,1.2,508.7,M,48.0,M,0.0,0000*70
$GPGSA,A,3,13,25,04,07,27,23,02,,,,,,3.9,1.2,3.6*3E
$GPRMC,070100.332,A,4740.4668,N,00935.0660,E,0.00,,240708,,*14
$GPGGA,070101.332,4740.4667,N,00935.0660,E,1,07,1.2,508.7,M,48.0,M,0.0,0000*7E
$GPGSA,A,3,13,25,04,07,27,23,02,,,,,,3.9,1.2,3.6*3E
$GPRMC,070101.332,A,4740.4667,N,00935.0660,E,0.00,,240708,,*1A
