$GPGGA,223347.20,,,,,0,00,0.5,,M,-0.555099,M,-0.6400199,0130*56
$GPRMC,223347.20,V,,,,,,,040308,,,N*73
$GPGSV,2,1,08,15,70,184,,26,60,156,,09,45,286,,17,37,096,*75
$GPGSV,2,2,08,28,33,052,,18,30,286,,12,16,223,,22,13,323,*7D
$GPGSA,A,1,,,,,,,,,,,,,1.1,0.5,1.0*34
$GPGGA,223349.25,,,,,0,00,0.5,,M,-0.555099,M,-0.6400199,0130*5D
$GPRMC,223349.25,V,,,,,,,040308,,,N*78
$GPGSA,A,1,,,,,,,,,,,,,1.1,0.5,1.0*34
$GPGGA,223351.22,,,,,0,00,0.5,,M,-0.555099,M,-0.6400199,0130*53
$GPRMC,223351.22,V,,,,,,,040308,,,N*76
$GPGSA,A,1,,,,,,,,,,,,,1.1,0.5,1.0*34
$GPGGA,223353.24,,,,,0,00,0.5,,M,-0.555099,M,-0.6400199,0130*57
$GPRMC,223353.24,V,,,,,,,040308,,,N*72
$GPGSA,A,1,,,,,,,,,,,,,1.1,0.5,1.0*34
$PGLOR,RID,GLL,185,5,39*71
$GPGGA,074931.29,,,,,0,00,0.5,,M,-0.555099,M,-0.6400199,0000*56
$GPRMC,074931.29,V,,,,,,,050308,,,N*70
$GPGSA,A,1,,,,,,,,,,,,,1.1,0.5,1.0*34
$GPGGA,074933.23,,,,,0,00,0.5,,M,-0.555099,M,-0.6400199,0000*5E
$GPRMC,074933.23,V,,,,,,,050308,,,N*78
$GPGSA,A,1,,,,,,,,,,,,,1.1,0.5,1.0*34
$GPGGA,074935.33,,,,,0,00,0.5,,M,-0.555099,M,-0.6400199,0000*59
$GPRMC,074935.33,V,,,,,,,050308,,,N*7F
$GPGSA,A,1,,,,,,,,,,,,,1.1,0.5,1.0*34
$GPGGA,074937.24,,,,,0,00,0.5,,M,-0.555099,M,-0.6400199,0000*5D
$GPRMC,074937.24,V,,,,,,,050308,,,N*7B
$GPGSA,A,1,,,,,,,,,,,,,1.1,0.5,1.0*34
$GPGGA,074939.18,,,,,0,00,0.5,,M,-0.555099,M,-0.6400199,0000*5C
$GPRMC,074939.18,V,,,,,,,050308,,,N*7A
$GPGSV,3,1,10,18,49,092,25,21,40,061,28,15,07,047,30,03,61,297,*73
$GPGSV,3,2,10,16,57,201,,22,40,152,,06,36,107,,19,31,291,*78
$GPGSV,3,3,10,25,13,297,,07,12,110,*75
$GPGSA,A,1,,,,,,,,,,,,,1.1,0.5,1.0*34
$GPGGA,074941.23,,,,,0,00,0.5,,M,-0.555099,M,-0.6400199,0000*5B
$GPRMC,074941.23,V,,,,,,,050308,,,N*7D
$GPGSA,A,1,,,,,,,,,,,,,1.1,0.5,1.0*34
$GPGGA,074943.28,,,,,0,00,0.5,,M,-0.555099,M,-0.6400199,0000*52
$GPRMC,074943.28,V,,,,,,,050308,,,N*74
$GPGSA,A,1,,,,,,,,,,,,,1.1,0.5,1.0*34
$GPGGA,074945.19,,,,,0,00,0.5,,M,-0.555099,M,-0.6400199,0000*56
$GPRMC,074945.19,V,,,,,,,050308,,,N*70
$GPGSA,A,1,,,,,,,,,,,,,1.1,0.5,1.0*34
$GPGGA,074947.25,,,,,0,00,0.5,,M,-0.555099,M,-0.6400199,0000*5B
$GPRMC,074947.25,V,,,,,,,050308,,,N*7D
$GPGSA,A,1,,,,,,,,,,,,,1.1,0.5,1.0*34
$GPGGA,074949.22,,,,,0,00,0.5,,M,-0.555099,M,-0.6400199,0000*52
$GPRMC,074949.22,V,,,,,,,050308,,,N*74
$GPGSV,3,1,10,21,40,061,24,15,07,047,34,03,61,297,,16,57,201,*75
$GPGSV,3,2,10,18,49,092,,22,40,152,,06,36,107,,19,31,291,*71
$GPGSV,3,3,10,25,13,297,,07,12,110,*75
$GPGSA,A,1,,,,,,,,,,,,,1.1,0.5,1.0*34
$GPGGA,074951.24,,,,,0,00,0.5,,M,-0.555099,M,-0.6400199,0000*5D
$GPRMC,074951.24,V,,,,,,,050308,,,N*7B
$GPGSA,A,1,,,,,,,,,,,,,1.1,0.5,1.0*34
$GPGGA,074953.18,,,,,0,00,0.5,,M,-0.555099,M,-0.6400199,0000*50
$GPRMC,074953.18,V,,,,,,,050308,,,N*76
$GPGSA,A,1,,,,,,,,,,,,,1.1,0.5,1.0*34
$GPGGA,074955.25,,,,,0,00,0.5,,M,-0.555099,M,-0.6400199,0000*58
$GPRMC,074955.25,V,,,,,,,050308,,,N*7E
$GPGSA,A,1,,,,,,,,,,,,,1.1,0.5,1.0*34
$GPGGA,074957.23,,,,,0,00,0.5,,M,-0.555099,M,-0.6400199,0000*5C
$GPRMC,074957.23,V,,,,,,,050308,,,N*7A
$GPGSA,A,1,,,,,,,,,,,,,1.1,0.5,1.0*34
$GPGGA,074959.31,,,,,0,00,0.5,,M,-0.555099,M,-0.6400199,0000*51
$GPRMC,074959.31,V,,,,,,,050308,,,N*77
$GPGSV,3,1,10,18,49,092,20,21,40,061,25,15,07,047,26,03,61,297,*7C
$GPGSV,3,2,10,16,57,201,,22,40,152,,06,36,107,,19,31,291,*78
$GPGSV,3,3,10,25,13,297,,07,12,110,*75
$GPGSA,A,1,,,,,,,,,,,,,1.1,0.5,1.0*34
$GPGGA,075001.24,,,,,0,00,0.5,,M,-0.555099,M,-0.6400199,0000*50
$GPRMC,075001.24,V,,,,,,,050308,,,N*76
$GPGSA,A,1,,,,,,,,,,,,,1.1,0.5,1.0*34
$GPGGA,075003.15,,,,,0,00,0.5,,M,-0.555099,M,-0.6400199,0000*50
$GPRMC,075003.15,V,,,,,,,050308,,,N*76
$GPGSA,A,1,,,,,,,,,,,,,1.1,0.5,1.0*34
$GPGGA,075005.24,,,,,0,00,0.5,,M,-0.555099,M,-0.6400199,0000*54
$GPRMC,075005.24,V,,,,,,,050308,,,N*72
$GPGSA,A,1,,,,,,,,,,,,,1.1,0.5,1.0*34
$GPGGA,075007.22,,,,,0,00,0.5,,M,-0.555099,M,-0.6400199,0000*50
$GPRMC,075007.22,V,,,,,,,050308,,,N*76
$GPGSA,A,1,,,,,,,,,,,,,1.1,0.5,1.0*34
$GPGGA,075009.32,,,,,0,00,0.5,,M,-0.555099,M,-0.6400199,0000*5F
$GPRMC,075009.32,V,,,,,,,050308,,,N*79
$GPGSV,3,1,10,18,49,092,18,21,40,061,25,15,07,047,26,03,61,297,*77
$GPGSV,3,2,10,16,57,201,,22,40,152,,06,36,107,,19,31,291,*78
$GPGSV,3,3,10,25,13,297,,07,12,110,*75
$GPGSA,A,1,,,,,,,,,,,,,1.1,0.5,1.0*34
$GPGGA,075011.17,,,,,0,00,0.5,,M,-0.555099,M,-0.6400199,0000*51
$GPRMC,075011.17,V,,,,,,,050308,,,N*77
$GPGSA,A,1,,,,,,,,,,,,,1.1,0.5,1.0*34
$GPGGA,075013.20,,,,,0,00,0.5,,M,-0.555099,M,-0.6400199,0000*57
$GPRMC,075013.20,V,,,,,,,050308,,,N*71
$GPGSA,A,1,,,,,,,,,,,,,1.1,0.5,1.0*34
$GPGGA,075015.23,,,,,0,00,0.5,,M,-0.555099,M,-0.6400199,0000*52
$GPRMC,075015.23,V,,,,,,,050308,,,N*74
$GPGSA,A,1,,,,,,,,,,,,,1.1,0.5,1.0*34
$GPGGA,075017.18,,,,,0,00,0.5,,M,-0.555099,M,-0.6400199,0000*58
$GPRMC,075017.18,V,,,,,,,050308,,,N*7E
$GPGSA,A,1,,,,,,,,,,,,,1.1,0.5,1.0*34
$GPGGA,075019.25,,,,,0,00,0.5,,M,-0.555099,M,-0.6400199,0000*58
$GPRMC,075019.25,V,,,,,,,050308,,,N*7E
$GPGSV,3,1,10,21,40,061,13,15,07,047,13,03,61,297,,16,57,201,*74
$GPGSV,3,2,10,18,49,092,,22,40,152,,06,36,107,,19,31,291,*71
$GPGSV,3,3,10,25,13,297,,07,12,110,*75
$GPGSA,A,1,,,,,,,,,,,,,1.1,0.5,1.0*34
$GPGGA,075021.21,,,,,0,00,0.5,,M,-0.555099,M,-0.6400199,0000*57
$GPRMC,075021.21,V,,,,,,,050308,,,N*71
$GPGSA,A,1,,,,,,,,,,,,,1.1,0.5,1.0*34
$GPGGA,075023.25,,,,,0,00,0.5,,M,-0.555099,M,-0.6400199,0000*51
$GPRMC,075023.25,V,,,,,,,050308,,,N*77
$GPGSA,A,1,,,,,,,,,,,,,1.1,0.5,1.0*34
$GPGGA,075025.18,,,,,0,00,0.5,,M,-0.555099,M,-0.6400199,0000*59
$GPRMC,075025.18,V,,,,,,,050308,,,N*7F
$GPGSA,A,1,,,,,,,,,,,,,1.1,0.5,1.0*34
$GPGGA,075027.20,,,,,0,00,0.5,,M,-0.555099,M,-0.6400199,0000*50
$GPRMC,075027.20,V,,,,,,,050308,,,N*76
$GPGSA,A,1,,,,,,,,,,,,,1.1,0.5,1.0*34
$GPGGA,075029.19,,,,,0,00,0.5,,M,-0.555099,M,-0.6400199,0000*54
$GPRMC,075029.19,V,,,,,,,050308,,,N*72
$GPGSV,3,1,10,18,49,092,30,21,40,061,37,22,40,152,37,06,36,107,34*76
$GPGSV,3,2,10,25,13,297,25,03,61,297,,16,57,201,,19,31,291,*79
$GPGSV,3,3,10,07,12,110,,15,07,047,*7C
$GPGSA,A,1,,,,,,,,,,,,,1.1,0.5,1.0*34
$GPGGA,075031.20,,,,,0,00,0.5,,M,-0.555099,M,-0.6400199,0000*57
$GPRMC,075031.20,V,,,,,,,050308,,,N*71
$GPGSA,A,1,,,,,,,,,,,,,1.1,0.5,1.0*34
$GPGGA,075033.20,,,,,0,00,0.5,,M,-0.555099,M,-0.6400199,0000*55
$GPRMC,075033.20,V,,,,,,,050308,,,N*73
$GPGSA,A,1,,,,,,,,,,,,,1.1,0.5,1.0*34
$GPGGA,075035.23,,,,,0,00,0.5,,M,-0.555099,M,-0.6400199,0000*50
$GPRMC,075035.23,V,,,,,,,050308,,,N*76
$GPGSA,A,1,,,,,,,,,,,,,1.1,0.5,1.0*34
$GPGGA,075037.29,,,,,0,00,0.5,,M,-0.555099,M,-0.6400199,0000*58
$GPRMC,075037.29,V,,,,,,,050308,,,N*7E
$GPGSA,A,1,,,,,,,,,,,,,1.1,0.5,1.0*34
$GPGGA,075039.19,,,,,0,00,0.5,,M,-0.555099,M,-0.6400199,0000*55
$GPRMC,075039.19,V,,,,,,,050308,,,N*73
$GPGSV,3,1,10,03,61,297,42,16,57,201,40,18,49,092,44,21,40,061,42*7F
$GPGSV,3,2,10,22,40,152,37,06,36,107,42,19,31,291,33,25,13,297,24*73
$GPGSV,3,3,10,07,12,110,,15,07,047,*7C
$GPGSA,A,1,,,,,,,,,,,,,1.1,0.5,1.0*34
$GPGGA,075041.20,,,,,0,00,0.5,,M,-0.555099,M,-0.6400199,0000*50
$GPRMC,075041.20,V,,,,,,,050308,,,N*76
$GPGSA,A,1,,,,,,,,,,,,,1.1,0.5,1.0*34
$GPGGA,075043.20,,,,,0,00,0.5,,M,-0.555099,M,-0.6400199,0000*52
$GPRMC,075043.20,V,,,,,,,050308,,,N*74
$GPGSA,A,1,,,,,,,,,,,,,1.1,0.5,1.0*34
$GPGGA,075045.19,,,,,0,00,0.5,,M,-0.555099,M,-0.6400199,0000*5E
$GPRMC,075045.19,V,,,,,,,050308,,,N*78
$GPGSA,A,1,,,,,,,,,,,,,1.1,0.5,1.0*34
$GPGGA,075047.27,,,,,0,00,0.5,,M,-0.555099,M,-0.6400199,0000*51
$GPRMC,075047.27,V,,,,,,,050308,,,N*77
$GPGSA,A,1,,,,,,,,,,,,,1.1,0.5,1.0*34
$GPGGA,075049.15,,,,,0,00,0.5,,M,-0.555099,M,-0.6400199,0000*5E
$GPRMC,075049.15,V,,,,,,,050308,,,N*78
$GPGSV,3,1,10,03,61,297,35,16,57,201,37,18,49,092,35,21,40,061,37*7B
$GPGSV,3,2,10,22,40,152,44,06,36,107,40,19,31,291,34,25,13,297,20*76
$GPGSV,3,3,10,07,12,110,,15,07,047,*7C
$GPGSA,A,1,,,,,,,,,,,,,1.1,0.5,1.0*34
$GPGGA,075051.24,,,,,0,00,0.5,,M,-0.555099,M,-0.6400199,0000*55
$GPRMC,075051.24,V,,,,,,,050308,,,N*73
$GPGSA,A,1,,,,,,,,,,,,,1.1,0.5,1.0*34
$GPGGA,075053.16,,,,,0,00,0.5,,M,-0.555099,M,-0.6400199,0000*56
$GPRMC,075053.16,V,,,,,,,050308,,,N*70
$GPGSA,A,1,,,,,,,,,,,,,1.1,0.5,1.0*34
$GPGGA,075055.17,,,,,0,00,0.5,,M,-0.555099,M,-0.6400199,0000*51
$GPRMC,075055.17,V,,,,,,,050308,,,N*77
$GPGSA,A,1,,,,,,,,,,,,,1.1,0.5,1.0*34
$GPGGA,075057.19,,,,,0,00,0.5,,M,-0.555099,M,-0.6400199,0000*5D
$GPRMC,075057.19,V,,,,,,,050308,,,N*7B
$GPGSA,A,1,,,,,,,,,,,,,1.1,0.5,1.0*34
$GPGGA,075059.24,,,,,0,00,0.5,,M,-0.555099,M,-0.6400199,0000*5D
$GPRMC,075059.24,V,,,,,,,050308,,,N*7B
$GPGSV,3,1,10,03,61,297,33,16,57,201,42,18,49,092,41,21,40,061,41*7D
$GPGSV,3,2,10,22,40,152,47,06,36,107,43,19,31,291,31,25,13,297,28*7B
$GPGSV,3,3,10,07,12,110,,15,07,047,*7C
$GPGSA,A,1,,,,,,,,,,,,,1.1,0.5,1.0*34
$GPGGA,075101.23,,,,,0,00,0.5,,M,-0.555099,M,-0.6400199,0000*56
$GPRMC,075101.23,V,,,,,,,050308,,,N*70
$GPGSA,A,1,,,,,,,,,,,,,1.1,0.5,1.0*34
$GPGGA,075103.21,,,,,0,00,0.5,,M,-0.555099,M,-0.6400199,0000*56
$GPRMC,075103.21,V,,,,,,,050308,,,N*70
$GPGSA,A,1,,,,,,,,,,,,,1.1,0.5,1.0*34
$GPGGA,075105.73,,,,,0,00,0.5,,M,-0.525099,M,-1.1940599,0130*59
$GPRMC,075105.73,V,,,,,,,050308,,,N*71
$GPGSA,A,1,06,16,22,,,,,,,,,,1.1,0.5,1.0*35
$GPGGA,075106.50,,,,,0,00,0.5,,M,-0.525099,M,-1.1940599,0130*5B
$GPRMC,075106.50,V,,,,,,,050308,,,N*73
$GPGSA,A,1,06,16,22,,,,,,,,,,1.1,0.5,1.0*35
$GPGGA,075108.58,,,,,0,00,0.5,,M,-0.525109,M,-1.1940599,0130*55
$GPRMC,075108.58,V,,,,,,,050308,,,N*75
$GPGSV,3,1,10,16,56,200,39,22,41,152,41,06,36,108,31,03,61,297,34*77
$GPGSV,3,2,10,18,49,092,37,21,40,061,40,19,31,291,30,25,13,297,24*7A
$GPGSV,3,3,10,07,12,110,,15,07,047,*7C
$GPGSA,A,1,06,16,22,,,,,,,,,,1.1,0.5,1.0*35
$GPGGA,075110.19,,,,,0,00,1000.0,,M,-0.515103,M,-1.1940599,0130*64
$GPRMC,075110.19,V,,,,,,,050308,,,N*79
$GPGSA,A,1,06,16,22,,,,,,,,,,2230.0,1000.0,2000.0*01
$GPGGA,075112.19,,,,,0,00,1000.0,,M,-0.507103,M,-1.1940599,0130*65
$GPRMC,075112.19,V,,,,,,,050308,,,N*7B
$GPGSA,A,1,06,16,22,,,,,,,,,,2230.0,1000.0,2000.0*01
$GPGGA,075114.19,,,,,0,00,1000.0,,M,-0.513104,M,-1.1940599,0130*61
$GPRMC,075114.19,V,,,,,,,050308,,,N*7D
$GPGSA,A,1,06,16,22,,,,,,,,,,2230.0,1000.0,2000.0*01
$GPGGA,075115.97,4740.486510,N,00934.756793,E,1,03,5.0,513.0,M,-0.511099,M,-1.1940515,0130*4F
$GPRMC,075115.97,A,4740.486510,N,00934.756793,E,000.0,000.0,050308,,,A*57
$GPGSA,A,3,06,16,22,,,,,,,,,,11.2,5.0,10.0*35
$GPGGA,075116.71,4740.486510,N,00934.756793,E,1,03,3.0,513.0,M,-0.511101,M,-1.1990515,0130*4F
$GPRMC,075116.71,A,4740.486510,N,00934.756793,E,000.0,000.0,050308,,,A*5C
$GPGSV,3,1,10,16,56,200,43,22,41,152,48,06,36,108,36,03,61,297,35*75
$GPGSV,3,2,10,18,49,092,43,21,40,061,43,19,31,291,33,25,13,297,11*7F
$GPGSV,3,3,10,07,12,110,,15,07,047,*7C
$GPGSA,A,3,06,16,22,,,,,,,,,,6.7,3.0,6.0*37
$GPGGA,075117.47,4740.486510,N,00934.756793,E,1,03,3.0,513.0,M,-0.540002,M,-1.1990515,0130*4D
$GPRMC,075117.47,A,4740.486510,N,00934.756793,E,000.0,000.0,050308,,,A*58
$GPGSA,A,3,06,16,22,,,,,,,,,,6.7,3.0,6.0*37
$GPGGA,075118.23,4740.486510,N,00934.756793,E,1,03,3.0,513.0,M,-0.540002,M,-1.1990515,0130*40
$GPRMC,075118.23,A,4740.486510,N,00934.756793,E,000.0,000.0,050308,,,A*55
$GPGSA,A,3,06,16,22,,,,,,,,,,6.7,3.0,6.0*37
$GPGGA,075118.99,4740.486510,N,00934.756793,E,1,03,3.0,513.0,M,-0.540002,M,-1.1990515,0130*41
$GPRMC,075118.99,A,4740.486510,N,00934.756793,E,000.0,000.0,050308,,,A*54
$GPGSA,A,3,06,16,22,,,,,,,,,,6.7,3.0,6.0*37
$GPGGA,075119.75,4740.486510,N,00934.756793,E,1,03,3.0,513.0,M,-0.540002,M,-1.1990515,0130*42
$GPRMC,075119.75,A,4740.486510,N,00934.756793,E,000.0,000.0,050308,,,A*57
$GPGSA,A,3,06,16,22,,,,,,,,,,6.7,3.0,6.0*37
$GPGGA,075120.51,4740.486510,N,00934.756793,E,1,03,3.0,513.0,M,-0.540002,M,-1.1990515,0130*4E
$GPRMC,075120.51,A,4740.486510,N,00934.756793,E,000.0,000.0,050308,,,A*5B
$GPGSV,3,1,10,16,56,200,42,22,41,152,47,06,36,108,35,03,61,297,33*7E
$GPGSV,3,2,10,18,49,092,40,21,40,061,42,19,31,291,31,25,13,297,22*7F
$GPGSV,3,3,10,07,12,110,,15,07,047,*7C
$GPGSA,A,3,06,16,22,,,,,,,,,,6.7,3.0,6.0*37
$GPGGA,075121.25,4740.486510,N,00934.756793,E,1,03,3.0,513.0,M,-0.540002,M,-1.1990515,0130*4C
$GPRMC,075121.25,A,4740.486510,N,00934.756793,E,000.0,000.0,050308,,,A*59
$GPGSA,A,3,06,16,22,,,,,,,,,,6.7,3.0,6.0*37
$GPGGA,075122.05,4740.486510,N,00934.756793,E,1,03,3.0,513.0,M,-0.539002,M,-1.1990515,0130*43
$GPRMC,075122.05,A,4740.486510,N,00934.756793,E,000.0,000.0,050308,,,A*58
$GPGSA,A,3,06,16,22,,,,,,,,,,6.7,3.0,6.0*37
$GPGGA,075122.81,4740.486510,N,00934.756793,E,1,03,3.0,513.0,M,-0.538002,M,-1.1990515,0130*4E
$GPRMC,075122.81,A,4740.486510,N,00934.756793,E,000.0,000.0,050308,,,A*54
$GPGSA,A,3,06,16,22,,,,,,,,,,6.7,3.0,6.0*37
$GPGGA,075123.57,4740.486510,N,00934.756793,E,1,04,3.0,513.0,M,-0.538001,M,-1.1990515,0130*40
$GPRMC,075123.57,A,4740.486510,N,00934.756793,E,000.0,000.0,050308,,,A*5E
$GPGSA,A,3,06,16,18,22,,,,,,,,,6.7,3.0,6.0*3E
$GPGGA,075125.87,4740.486510,N,00934.756793,E,1,04,5.0,513.0,M,-0.537001,M,-1.1960540,0130*4D
$GPRMC,075125.87,A,4740.486510,N,00934.756793,E,000.0,000.0,050308,,,A*55
$GPGSV,3,1,10,16,56,200,43,18,49,090,42,22,41,152,47,06,36,108,39*70
$GPGSV,3,2,10,03,61,297,32,21,40,061,42,19,31,291,34,25,13,297,21*7B
$GPGSV,3,3,10,07,12,110,,15,07,047,*7C
$GPGSA,A,3,06,16,18,22,,,,,,,,,11.2,5.0,10.0*3C
$GPGGA,075126.75,4740.486510,N,00934.756793,E,1,04,5.0,513.0,M,-0.537000,M,-1.1960515,0130*42
$GPRMC,075126.75,A,4740.486510,N,00934.756793,E,000.0,000.0,050308,,,A*5B
$GPGSA,A,3,06,16,18,22,,,,,,,,,11.2,5.0,10.0*3C
$GPGGA,075127.53,4740.486510,N,00934.756793,E,1,04,5.0,513.0,M,-0.537000,M,-1.1960515,0130*47
$GPRMC,075127.53,A,4740.486510,N,00934.756793,E,000.0,000.0,050308,,,A*5E
$GPGSA,A,3,06,16,18,22,,,,,,,,,11.2,5.0,10.0*3C
$GPGGA,075128.35,4740.486510,N,00934.756793,E,1,05,5.0,513.0,M,-0.536000,M,-1.1960515,0130*48
$GPRMC,075128.35,A,4740.486510,N,00934.756793,E,000.0,000.0,050308,,,A*51
$GPGSA,A,3,06,16,18,21,22,,,,,,,,11.2,5.0,10.0*3F
$GPGGA,075129.15,4740.486510,N,00934.756793,E,1,05,3.0,513.0,M,-0.537000,M,-1.1960515,0130*4C
$GPRMC,075129.15,A,4740.486510,N,00934.756793,E,000.0,000.0,050308,,,A*52
$GPGSA,A,3,06,16,18,21,22,,,,,,,,6.7,3.0,6.0*3D
$GPGGA,075129.99,4740.482954,N,00934.754886,E,1,05,3.0,549.0,M,-0.537000,M,-1.1960515,0130*46
$GPRMC,075129.99,A,4740.482954,N,00934.754886,E,000.0,000.0,050308,,,A*57
$GPGSV,3,1,10,16,56,200,42,18,49,090,42,22,41,152,47,21,39,060,42*78
$GPGSV,3,2,10,06,36,108,40,03,61,297,35,19,31,291,32,25,13,297,17*77
$GPGSV,3,3,10,07,12,110,,15,07,047,*7C
$GPGSA,A,3,06,16,18,21,22,,,,,,,,6.7,3.0,6.0*3D
$GPGGA,075130.79,4740.481529,N,00934.754697,E,1,05,3.0,548.0,M,-0.536000,M,-1.1960515,0130*4B
$GPRMC,075130.79,A,4740.481529,N,00934.754697,E,000.0,000.0,050308,,,A*5A
$GPGSA,A,3,06,16,18,21,22,,,,,,,,6.7,3.0,6.0*3D
$GPGGA,075131.61,4740.480416,N,00934.754512,E,1,05,3.0,548.0,M,-0.536000,M,-1.1960515,0130*41
$GPRMC,075131.61,A,4740.480416,N,00934.754512,E,000.0,000.0,050308,,,A*50
$GPGSA,A,3,06,16,18,21,22,,,,,,,,6.7,3.0,6.0*3D
$GPGGA,075132.45,4740.479646,N,00934.754293,E,1,05,3.0,548.0,M,-0.536000,M,-1.1960515,0130*4B
$GPRMC,075132.45,A,4740.479646,N,00934.754293,E,000.0,000.0,050308,,,A*5A
$GPGSA,A,3,06,16,18,21,22,,,,,,,,6.7,3.0,6.0*3D
$GPGGA,075133.29,4740.479079,N,00934.754094,E,1,05,3.0,547.0,M,-0.536000,M,-1.1960515,0130*40
$GPRMC,075133.29,A,4740.479079,N,00934.754094,E,000.0,000.0,050308,,,A*5E
$GPGSA,A,3,06,16,18,21,22,,,,,,,,6.7,3.0,6.0*3D
$GPGGA,075134.15,4740.478634,N,00934.753893,E,1,05,3.0,547.0,M,-0.537000,M,-1.1960515,0130*4F
$GPRMC,075134.15,A,4740.478634,N,00934.753893,E,000.0,000.0,050308,,,A*50
$GPGSV,3,1,10,16,56,200,41,18,49,090,43,22,41,152,48,21,39,060,43*74
$GPGSV,3,2,10,06,36,108,39,03,61,297,36,19,31,291,34,25,13,297,22*7A
$GPGSV,3,3,10,07,12,110,,15,07,047,*7C
$GPGSA,A,3,06,16,18,21,22,,,,,,,,6.7,3.0,6.0*3D
$GPGGA,075134.97,4740.478313,N,00934.753664,E,1,05,1.0,546.0,M,-0.536000,M,-1.1960515,0130*41
$GPRMC,075134.97,A,4740.478313,N,00934.753664,E,000.0,000.0,050308,,,A*5C
$GPGSA,A,3,06,16,18,21,22,,,,,,,,2.2,1.0,2.0*3A
$GPGGA,075135.79,4740.478085,N,00934.753395,E,1,05,1.0,545.0,M,-0.537000,M,-1.1960515,0130*45
$GPRMC,075135.79,A,4740.478085,N,00934.753395,E,000.0,000.0,050308,,,A*5A
$GPGSA,A,3,06,16,18,21,22,,,,,,,,2.2,1.0,2.0*3A
$GPGGA,075136.61,4740.477896,N,00934.753117,E,1,05,1.0,545.0,M,-0.537000,M,-1.1960515,0130*42
$GPRMC,075136.61,A,4740.477896,N,00934.753117,E,000.0,000.0,050308,,,A*5D
$GPGSA,A,3,06,16,18,21,22,,,,,,,,2.2,1.0,2.0*3A
$GPGGA,075137.43,4740.477791,N,00934.752794,E,1,05,1.0,544.0,M,-0.536000,M,-1.1960515,0130*47
$GPRMC,075137.43,A,4740.477791,N,00934.752794,E,000.0,000.0,050308,,,A*58
$GPGSA,A,3,06,16,18,21,22,,,,,,,,2.2,1.0,2.0*3A
$GPGGA,075138.25,4740.477753,N,00934.752475,E,1,05,1.0,543.0,M,-0.537000,M,-1.1970515,0130*4D
$GPRMC,075138.25,A,4740.477753,N,00934.752475,E,000.0,000.0,050308,,,A*55
$GPGSV,3,1,10,16,56,200,41,18,49,090,43,22,41,152,47,21,39,060,42*7A
$GPGSV,3,2,10,06,36,108,39,03,61,297,34,19,31,291,34,25,13,297,20*7A
$GPGSV,3,3,10,07,12,110,,15,07,047,*7C
$GPGSA,A,3,06,16,18,21,22,,,,,,,,2.2,1.0,2.0*3A
$GPGGA,075139.09,4740.477757,N,00934.752131,E,1,05,1.0,542.0,M,-0.537000,M,-1.1970515,0130*42
$GPRMC,075139.09,A,4740.477757,N,00934.752131,E,000.0,000.0,050308,,,A*5B
$GPGSA,A,3,06,16,18,21,22,,,,,,,,2.2,1.0,2.0*3A
$GPGGA,075139.95,4740.477789,N,00934.751797,E,1,05,1.0,540.0,M,-0.537000,M,-1.1970515,0130*4F
$GPRMC,075139.95,A,4740.477789,N,00934.751797,E,000.0,000.0,050308,,,A*54
$GPGSA,A,3,06,16,18,21,22,,,,,,,,2.2,1.0,2.0*3A
$GPGGA,075140.75,4740.477789,N,00934.751797,E,1,05,1.0,540.0,M,-0.537000,M,-1.1970515,0130*4F
$GPRMC,075140.75,A,4740.477789,N,00934.751797,E,000.0,000.0,050308,,,A*54
$GPGSA,A,3,06,16,18,21,22,,,,,,,,2.2,1.0,2.0*3A
$GPGGA,075141.55,4740.477874,N,00934.751157,E,1,05,1.0,538.0,M,-0.536000,M,-1.1970515,0130*45
$GPRMC,075141.55,A,4740.477874,N,00934.751157,E,000.0,000.0,050308,,,A*50
$GPGSA,A,3,06,16,18,21,22,,,,,,,,2.2,1.0,2.0*3A
$GPGGA,075142.37,4740.477939,N,00934.750854,E,1,05,1.0,537.0,M,-0.537000,M,-1.1970515,0130*4F
$GPRMC,075142.37,A,4740.477939,N,00934.750854,E,000.0,000.0,050308,,,A*54
$GPGSV,3,1,10,16,56,200,43,18,49,090,44,22,41,152,47,21,39,060,43*7E
$GPGSV,3,2,10,06,36,108,36,03,61,297,34,19,31,291,32,25,13,297,24*77
$GPGSV,3,3,10,07,12,110,,15,07,047,*7C
$GPGSA,A,3,06,16,18,21,22,,,,,,,,2.2,1.0,2.0*3A
$GPGGA,075143.17,4740.478022,N,00934.750543,E,1,05,3.0,535.0,M,-0.537000,M,-1.1970515,0130*4B
$GPRMC,075143.17,A,4740.478022,N,00934.750543,E,000.0,000.0,050308,,,A*50
$GPGSA,A,3,06,16,18,21,22,,,,,,,,6.7,3.0,6.0*3D
$GPGGA,075143.99,4740.478124,N,00934.750237,E,1,05,1.0,534.0,M,-0.537000,M,-1.1970515,0130*4D
$GPRMC,075143.99,A,4740.478124,N,00934.750237,E,000.0,000.0,050308,,,A*55
$GPGSA,A,3,06,16,18,21,22,,,,,,,,2.2,1.0,2.0*3A
$GPGGA,075144.83,4740.478217,N,00934.749952,E,1,05,0.5,533.0,M,-0.537000,M,-1.1970515,0130*41
$GPRMC,075144.83,A,4740.478217,N,00934.749952,E,000.0,000.0,050308,,,A*5A
$GPGSA,A,3,06,16,18,21,22,,,,,,,,1.1,0.5,1.0*3D
$GPGGA,075145.63,4740.478315,N,00934.749682,E,1,05,1.0,531.0,M,-0.537000,M,-1.1970515,0130*49
$GPRMC,075145.63,A,4740.478315,N,00934.749682,E,000.0,000.0,050308,,,A*54
$GPGSA,A,3,06,16,18,21,22,,,,,,,,2.2,1.0,2.0*3A
$GPGGA,075146.47,4740.478415,N,00934.749426,E,1,05,1.0,530.0,M,-0.537000,M,-1.1970515,0130*46
$GPRMC,075146.47,A,4740.478415,N,00934.749426,E,000.0,000.0,050308,,,A*5A
$GPGSV,3,1,10,16,56,200,42,18,49,090,44,22,41,152,47,21,39,060,42*7E
$GPGSV,3,2,10,06,36,108,35,03,61,297,33,19,31,291,33,25,13,297,19*7C
$GPGSV,3,3,10,07,12,110,,15,07,047,*7C
$GPGSA,A,3,06,16,18,21,22,,,,,,,,2.2,1.0,2.0*3A
$GPGGA,075147.27,4740.478505,N,00934.749187,E,1,05,1.0,529.0,M,-0.537000,M,-1.1970515,0130*47
$GPRMC,075147.27,A,4740.478505,N,00934.749187,E,000.0,000.0,050308,,,A*53
$GPGSA,A,3,06,16,18,21,22,,,,,,,,2.2,1.0,2.0*3A
$GPGGA,075148.09,4740.478584,N,00934.748948,E,1,05,1.0,527.0,M,-0.537000,M,-1.1970515,0130*49
$GPRMC,075148.09,A,4740.478584,N,00934.748948,E,000.0,000.0,050308,,,A*53
$GPGSA,A,3,06,16,18,21,22,,,,,,,,2.2,1.0,2.0*3A
$GPGGA,075148.95,4740.478653,N,00934.748714,E,1,05,1.0,526.0,M,-0.537000,M,-1.1970515,0130*43
$GPRMC,075148.95,A,4740.478653,N,00934.748714,E,000.0,000.0,050308,,,A*58
$GPGSA,A,3,06,16,18,21,22,,,,,,,,2.2,1.0,2.0*3A
$GPGGA,075149.77,4740.478723,N,00934.748490,E,1,05,1.0,524.0,M,-0.537000,M,-1.1970515,0130*45
$GPRMC,075149.77,A,4740.478723,N,00934.748490,E,000.0,000.0,050308,,,A*5C
$GPGSA,A,3,06,16,18,21,22,,,,,,,,2.2,1.0,2.0*3A
$GPGGA,075150.59,4740.478794,N,00934.748276,E,1,05,1.0,523.0,M,-0.537000,M,-1.1970515,0130*44
$GPRMC,075150.59,A,4740.478794,N,00934.748276,E,000.0,000.0,050308,,,A*5A
$GPGSV,3,1,10,16,56,200,42,18,49,090,44,22,41,152,47,21,39,060,42*7E
$GPGSV,3,2,10,06,36,108,30,03,61,297,35,19,31,291,34,25,13,297,15*74
$GPGSV,3,3,10,07,12,110,,15,07,047,*7C
$GPGSA,A,3,06,16,18,21,22,,,,,,,,2.2,1.0,2.0*3A
$GPGGA,075151.49,4740.478851,N,00934.748070,E,1,05,3.0,521.0,M,-0.537000,M,-1.1970515,0130*46
$GPRMC,075151.49,A,4740.478851,N,00934.748070,E,000.0,000.0,050308,,,A*58
$GPGSA,A,3,06,16,18,21,22,,,,,,,,6.7,3.0,6.0*3D
$GPGGA,075152.33,4740.478893,N,00934.747878,E,1,05,3.0,520.0,M,-0.537000,M,-1.1970515,0130*48
$GPRMC,075152.33,A,4740.478893,N,00934.747878,E,000.0,000.0,050308,,,A*57
$GPGSA,A,3,06,16,18,21,22,,,,,,,,6.7,3.0,6.0*3D
$GPGGA,075153.19,4740.478933,N,00934.747684,E,1,05,3.0,518.0,M,-0.537000,M,-1.1970515,0130*4C
$GPRMC,075153.19,A,4740.478933,N,00934.747684,E,000.0,000.0,050308,,,A*58
$GPGSA,A,3,06,16,18,21,22,,,,,,,,6.7,3.0,6.0*3D
$GPGGA,075154.01,4740.478980,N,00934.747491,E,1,05,3.0,516.0,M,-0.538000,M,-1.1970515,0130*4D
$GPRMC,075154.01,A,4740.478980,N,00934.747491,E,000.0,000.0,050308,,,A*58
$GPGSA,A,3,06,16,18,21,22,,,,,,,,6.7,3.0,6.0*3D
$GPGGA,075154.83,4740.479038,N,00934.747290,E,1,05,3.0,515.0,M,-0.538000,M,-1.1970515,0130*48
$GPRMC,075154.83,A,4740.479038,N,00934.747290,E,000.0,000.0,050308,,,A*5E
$GPGSV,3,1,10,16,56,200,42,18,49,090,44,22,41,152,46,21,39,060,43*7E
$GPGSV,3,2,10,06,36,108,28,03,61,297,34,19,31,291,34,25,13,297,*78
$GPGSV,3,3,10,07,12,110,,15,07,047,*7C
$GPGSA,A,3,06,16,18,21,22,,,,,,,,6.7,3.0,6.0*3D
$GPGGA,075155.65,4740.479075,N,00934.747112,E,1,05,1.0,513.0,M,-0.538000,M,-1.1970515,0130*45
$GPRMC,075155.65,A,4740.479075,N,00934.747112,E,000.0,000.0,050308,,,A*57
$GPGSA,A,3,06,16,18,21,22,,,,,,,,2.2,1.0,2.0*3A
$GPGGA,075156.45,4740.479109,N,00934.746941,E,1,05,3.0,511.0,M,-0.538000,M,-1.1970515,0130*41
$GPRMC,075156.45,A,4740.479109,N,00934.746941,E,000.0,000.0,050308,,,A*53
$GPGSA,A,3,06,16,18,21,22,,,,,,,,6.7,3.0,6.0*3D
$GPGGA,075157.33,4740.479137,N,00934.746788,E,1,05,1.0,510.0,M,-0.538000,M,-1.1970515,0130*44
$GPRMC,075157.33,A,4740.479137,N,00934.746788,E,000.0,000.0,050308,,,A*55
$GPGSA,A,3,06,16,18,21,22,,,,,,,,2.2,1.0,2.0*3A
$GPGGA,075158.19,4740.479147,N,00934.746652,E,1,05,1.0,508.0,M,-0.538000,M,-1.1970515,0130*4B
$GPRMC,075158.19,A,4740.479147,N,00934.746652,E,000.0,000.0,050308,,,A*53
$GPGSA,A,3,06,16,18,21,22,,,,,,,,2.2,1.0,2.0*3A
$GPGGA,075159.05,4740.479134,N,00934.746548,E,1,05,3.0,507.0,M,-0.539000,M,-1.1970515,0130*47
$GPRMC,075159.05,A,4740.479134,N,00934.746548,E,000.0,000.0,050308,,,A*53
$GPGSV,3,1,10,16,56,200,42,18,49,090,44,22,41,152,47,21,39,060,41*7D
$GPGSV,3,2,10,06,36,108,30,03,61,297,34,19,31,291,34,25,13,297,25*76
$GPGSV,3,3,10,07,12,110,,15,07,047,*7C
$GPGSA,A,3,06,16,18,21,22,,,,,,,,6.7,3.0,6.0*3D
$GPGGA,075159.89,4740.479121,N,00934.746452,E,1,06,1.0,506.0,M,-0.538000,M,-1.1970515,0130*4C
$GPRMC,075159.89,A,4740.479121,N,00934.746452,E,000.0,000.0,050308,,,A*59
$GPGSA,A,3,03,06,16,18,21,22,,,,,,,2.2,1.0,2.0*39
$GPGGA,075200.73,4740.479066,N,00934.746397,E,1,06,1.0,504.0,M,-0.539000,M,-1.1970515,0130*49
$GPRMC,075200.73,A,4740.479066,N,00934.746397,E,000.0,000.0,050308,,,A*5F
$GPGSA,A,3,03,06,16,18,21,22,,,,,,,2.2,1.0,2.0*39
$GPGGA,075201.59,4740.478983,N,00934.746367,E,1,06,1.0,503.0,M,-0.539000,M,-1.1970505,0130*4A
$GPRMC,075201.59,A,4740.478983,N,00934.746367,E,000.0,000.0,050308,,,A*5A
$GPGSA,A,3,03,06,16,18,21,22,,,,,,,2.2,1.0,2.0*39
$GPGGA,075202.53,4740.478875,N,00934.746355,E,1,06,1.0,502.0,M,-0.539000,M,-1.1970505,0130*4B
$GPRMC,075202.53,A,4740.478875,N,00934.746355,E,000.0,000.0,050308,,,A*5A
$GPGSA,A,3,03,06,16,18,21,22,,,,,,,2.2,1.0,2.0*39
$GPGGA,075203.41,4740.478743,N,00934.746369,E,1,06,1.0,501.0,M,-0.539000,M,-1.1970505,0130*4F
$GPRMC,075203.41,A,4740.478743,N,00934.746369,E,000.0,000.0,050308,,,A*5D
$GPGSV,3,1,10,03,62,296,35,16,56,200,42,18,49,090,44,22,41,152,47*7B
$GPGSV,3,2,10,21,39,060,41,06,36,108,32,19,31,291,35,25,13,297,28*7D
$GPGSV,3,3,10,07,12,110,,15,07,047,*7C
$GPGSA,A,3,03,06,16,18,21,22,,,,,,,2.2,1.0,2.0*39
$GPGGA,075204.29,4740.478604,N,00934.746397,E,1,06,1.0,501.0,M,-0.539000,M,-1.1970505,0130*45
$GPRMC,075204.29,A,4740.478604,N,00934.746397,E,000.0,000.0,050308,,,A*57
$GPGSA,A,3,03,06,16,18,21,22,,,,,,,2.2,1.0,2.0*39
$GPGGA,075205.15,4740.478483,N,00934.746418,E,1,07,3.0,500.0,M,-0.539000,M,-1.1970505,0130*44
$GPRMC,075205.15,A,4740.478483,N,00934.746418,E,000.0,000.0,050308,,,A*54
$GPGSA,A,3,03,06,16,18,19,21,22,,,,,,6.7,3.0,6.0*36
$GPGGA,075205.97,4740.478393,N,00934.746419,E,1,07,1.0,499.0,M,-0.539000,M,-1.1970505,0130*4A
$GPRMC,075205.97,A,4740.478393,N,00934.746419,E,000.0,000.0,050308,,,A*59
$GPGSA,A,3,03,06,16,18,19,21,22,,,,,,2.2,1.0,2.0*31
$GPGGA,075206.85,4740.478312,N,00934.746431,E,1,07,1.0,498.0,M,-0.539000,M,-1.1970505,0130*48
$GPRMC,075206.85,A,4740.478312,N,00934.746431,E,000.0,000.0,050308,,,A*5A
$GPGSA,A,3,03,06,16,18,19,21,22,,,,,,2.2,1.0,2.0*31
$GPGGA,075207.73,4740.478245,N,00934.746443,E,1,07,1.0,497.0,M,-0.539000,M,-1.1970505,0130*49
$GPRMC,075207.73,A,4740.478245,N,00934.746443,E,000.0,000.0,050308,,,A*54
$GPGSV,3,1,10,03,62,296,32,16,56,200,42,18,49,090,44,22,41,152,47*7C
$GPGSV,3,2,10,21,39,060,39,06,36,108,35,19,32,292,31,25,13,297,29*70
$GPGSV,3,3,10,15,07,047,33,07,12,110,*7C
$GPGSA,A,3,03,06,16,18,19,21,22,,,,,,2.2,1.0,2.0*31
$GPGGA,075208.59,4740.478180,N,00934.746477,E,1,07,1.0,497.0,M,-0.539000,M,-1.1970505,0130*43
$GPRMC,075208.59,A,4740.478180,N,00934.746477,E,000.0,000.0,050308,,,A*5E
$GPGSA,A,3,03,06,16,18,19,21,22,,,,,,2.2,1.0,2.0*31
$GPGGA,075209.47,4740.478126,N,00934.746510,E,1,07,0.5,496.0,M,-0.538000,M,-1.1970505,0130*45
$GPRMC,075209.47,A,4740.478126,N,00934.746510,E,000.0,000.0,050308,,,A*5C
$GPGSA,A,3,03,06,16,18,19,21,22,,,,,,1.1,0.5,1.0*36
$GPGGA,075210.35,4740.478068,N,00934.746543,E,1,07,1.0,496.0,M,-0.539000,M,-1.1970505,0130*40
$GPRMC,075210.35,A,4740.478068,N,00934.746543,E,000.0,000.0,050308,,,A*5C
$GPGSA,A,3,03,06,16,18,19,21,22,,,,,,2.2,1.0,2.0*31
$GPGGA,075211.19,4740.478037,N,00934.746558,E,1,07,1.0,495.0,M,-0.541000,M,-1.1970505,0130*43
$GPRMC,075211.19,A,4740.478037,N,00934.746558,E,000.0,000.0,050308,,,A*53
$GPGSA,A,3,03,06,16,18,19,21,22,,,,,,2.2,1.0,2.0*31
$GPGGA,075212.03,4740.478008,N,00934.746580,E,1,07,1.0,495.0,M,-0.541000,M,-1.1970505,0130*42
$GPRMC,075212.03,A,4740.478008,N,00934.746580,E,000.0,000.0,050308,,,A*52
$GPGSV,3,1,10,03,62,296,32,16,56,200,41,18,49,090,46,22,41,152,47*7D
$GPGSV,3,2,10,21,39,060,40,06,36,108,35,19,32,292,33,25,13,297,23*76
$GPGSV,3,3,10,15,07,047,38,07,12,110,*77
$GPGSA,A,3,03,06,16,18,19,21,22,,,,,,2.2,1.0,2.0*31
$GPGGA,075212.95,4740.477972,N,00934.746622,E,1,07,3.0,495.0,M,-0.540000,M,-1.1970505,0130*4E
$GPRMC,075212.95,A,4740.477972,N,00934.746622,E,000.0,000.0,050308,,,A*5D
$GPGSA,A,3,03,06,16,18,19,21,22,,,,,,6.7,3.0,6.0*36
$GPGGA,075213.87,4740.477924,N,00934.746681,E,1,07,1.0,495.0,M,-0.539000,M,-1.1970505,0130*4A
$GPRMC,075213.87,A,4740.477924,N,00934.746681,E,000.0,000.0,050308,,,A*55
$GPGSA,A,3,03,06,16,18,19,21,22,,,,,,2.2,1.0,2.0*31
$GPGGA,075214.77,4740.477838,N,00934.746805,E,1,07,3.0,496.0,M,-0.539000,M,-1.1970505,0130*4D
$GPRMC,075214.77,A,4740.477838,N,00934.746805,E,000.0,000.0,050308,,,A*53
$GPGSA,A,3,03,06,16,18,19,21,22,,,,,,6.7,3.0,6.0*36
$GPGGA,075215.69,4740.477747,N,00934.746942,E,1,07,1.0,497.0,M,-0.539000,M,-1.1960505,0130*44
$GPRMC,075215.69,A,4740.477747,N,00934.746942,E,000.0,000.0,050308,,,A*58
$GPGSA,A,3,03,06,16,18,19,21,22,,,,,,2.2,1.0,2.0*31
$GPGGA,075216.55,4740.477672,N,00934.747076,E,1,07,3.0,497.0,M,-0.540000,M,-1.1960505,0130*4C
$GPRMC,075216.55,A,4740.477672,N,00934.747076,E,000.0,000.0,050308,,,A*5C
$GPGSV,3,1,10,03,62,296,32,16,56,200,41,18,49,090,46,22,41,152,47*7D
$GPGSV,3,2,10,21,39,060,40,06,36,108,36,19,32,292,31,25,13,297,24*70
$GPGSV,3,3,10,15,07,047,26,07,12,110,*78
$GPGSA,A,3,03,06,16,18,19,21,22,,,,,,6.7,3.0,6.0*36
$GPGGA,075217.43,4740.477589,N,00934.747225,E,1,07,1.0,498.0,M,-0.541000,M,-1.1960505,0130*45
$GPRMC,075217.43,A,4740.477589,N,00934.747225,E,000.0,000.0,050308,,,A*59
$GPGSA,A,3,03,06,16,18,19,21,22,,,,,,2.2,1.0,2.0*31
$GPGGA,075218.33,4740.477517,N,00934.747363,E,1,07,1.0,499.0,M,-0.541000,M,-1.1960505,0130*48
$GPRMC,075218.33,A,4740.477517,N,00934.747363,E,000.0,000.0,050308,,,A*55
$GPGSA,A,3,03,06,16,18,19,21,22,,,,,,2.2,1.0,2.0*31
$GPGGA,075219.21,4740.477474,N,00934.747465,E,1,07,3.0,500.0,M,-0.541000,M,-1.1960505,0130*4C
$GPRMC,075219.21,A,4740.477474,N,00934.747465,E,000.0,000.0,050308,,,A*52
$GPGSA,A,3,03,06,16,18,19,21,22,,,,,,6.7,3.0,6.0*36
$GPGGA,075220.13,4740.477426,N,00934.747588,E,1,07,3.0,501.0,M,-0.542000,M,-1.1960515,0130*41
$GPRMC,075220.13,A,4740.477426,N,00934.747588,E,000.0,000.0,050308,,,A*5C
$GPGSA,A,3,03,06,16,18,19,21,22,,,,,,6.7,3.0,6.0*36
$GPGGA,075221.11,4740.477410,N,00934.747680,E,1,07,1.0,501.0,M,-0.542000,M,-1.1960505,0130*4F
$GPRMC,075221.11,A,4740.477410,N,00934.747680,E,000.0,000.0,050308,,,A*51
$GPGSV,3,1,10,03,62,296,35,16,56,200,42,18,49,090,44,22,41,152,47*7B
$GPGSV,3,2,10,21,39,060,43,06,36,108,36,19,32,292,28,25,13,297,19*75
$GPGSV,3,3,10,15,07,047,16,07,12,110,*7B
$GPGSA,A,3,03,06,16,18,19,21,22,,,,,,2.2,1.0,2.0*31
$GPGGA,075222.01,4740.477388,N,00934.747753,E,1,07,1.0,502.0,M,-0.542000,M,-1.1960505,0130*47
$GPRMC,075222.01,A,4740.477388,N,00934.747753,E,000.0,000.0,050308,,,A*5A
$GPGSA,A,3,03,06,16,18,19,21,22,,,,,,2.2,1.0,2.0*31
$GPGGA,075222.89,4740.477380,N,00934.747812,E,1,07,1.0,503.0,M,-0.542000,M,-1.1960505,0130*44
$GPRMC,075222.89,A,4740.477380,N,00934.747812,E,000.0,000.0,050308,,,A*58
$GPGSA,A,3,03,06,16,18,19,21,22,,,,,,2.2,1.0,2.0*31
$GPGGA,075223.79,4740.477382,N,00934.747865,E,1,07,1.0,503.0,M,-0.543000,M,-1.1960505,0130*49
$GPRMC,075223.79,A,4740.477382,N,00934.747865,E,000.0,000.0,050308,,,A*54
$GPGSA,A,3,03,06,16,18,19,21,22,,,,,,2.2,1.0,2.0*31
$GPGGA,075224.77,4740.477412,N,00934.747902,E,1,07,1.0,504.0,M,-0.544000,M,-1.1960505,0130*4E
$GPRMC,075224.77,A,4740.477412,N,00934.747902,E,000.0,000.0,050308,,,A*53
$GPGSA,A,3,03,06,16,18,19,21,22,,,,,,2.2,1.0,2.0*31
$GPGGA,075225.67,4740.477456,N,00934.747925,E,1,07,1.0,504.0,M,-0.543000,M,-1.1960515,0130*4D
$GPRMC,075225.67,A,4740.477456,N,00934.747925,E,000.0,000.0,050308,,,A*56
$GPGSV,3,1,10,03,62,296,28,16,56,200,43,18,49,090,46,22,41,152,48*7B
$GPGSV,3,2,10,21,39,060,40,06,36,108,37,19,32,292,28,25,13,297,22*7F
$GPGSV,3,3,10,15,07,047,29,07,12,110,*77
$GPGSA,A,3,03,06,16,18,19,21,22,,,,,,2.2,1.0,2.0*31
$GPGGA,075226.57,4740.477520,N,00934.747935,E,1,07,1.0,505.0,M,-0.544000,M,-1.1960505,0130*4B
$GPRMC,075226.57,A,4740.477520,N,00934.747935,E,000.0,000.0,050308,,,A*57
$GPGSA,A,3,03,06,16,18,19,21,22,,,,,,2.2,1.0,2.0*31
$GPGGA,075227.45,4740.477577,N,00934.747943,E,1,07,1.0,505.0,M,-0.544000,M,-1.1960505,0130*4A
$GPRMC,075227.45,A,4740.477577,N,00934.747943,E,000.0,000.0,050308,,,A*56
$GPGSA,A,3,03,06,16,18,19,21,22,,,,,,2.2,1.0,2.0*31
$GPGGA,075228.31,4740.477641,N,00934.747938,E,1,07,1.0,506.0,M,-0.545000,M,-1.1960505,0130*4E
$GPRMC,075228.31,A,4740.477641,N,00934.747938,E,000.0,000.0,050308,,,A*50
$GPGSA,A,3,03,06,16,18,19,21,22,,,,,,2.2,1.0,2.0*31
$GPGGA,075229.19,4740.477663,N,00934.747960,E,1,07,1.0,506.0,M,-0.546000,M,-1.1960505,0130*4B
$GPRMC,075229.19,A,4740.477663,N,00934.747960,E,000.0,000.0,050308,,,A*56
$GPGSA,A,3,03,06,16,18,19,21,22,,,,,,2.2,1.0,2.0*31
$GPGGA,075230.75,4740.477673,N,00934.747989,E,1,07,3.0,506.0,M,-0.547000,M,-1.1960505,0130*4C
$GPRMC,075230.75,A,4740.477673,N,00934.747989,E,000.0,000.0,050308,,,A*52
$GPGSV,3,1,10,03,62,296,37,16,55,200,45,18,49,090,46,22,42,152,47*7C
$GPGSV,3,2,10,21,38,060,41,06,35,108,31,19,32,292,29,25,12,296,24*7D
$GPGSV,3,3,10,07,11,111,,15,08,046,*70
$GPGSA,A,3,03,06,16,18,19,21,22,,,,,,6.7,3.0,6.0*36
$GPGGA,075231.59,4740.477633,N,00934.748044,E,1,07,3.0,506.0,M,-0.547002,M,-1.1960505,0130*42
$GPRMC,075231.59,A,4740.477633,N,00934.748044,E,000.0,000.0,050308,,,A*5E
$GPGSA,A,3,03,06,16,18,19,21,22,,,,,,6.7,3.0,6.0*36
$GPGGA,075232.23,4740.477591,N,00934.748099,E,1,07,1.0,506.0,M,-0.543000,M,-1.1960505,0130*43
$GPRMC,075232.23,A,4740.477591,N,00934.748099,E,000.0,000.0,050308,,,A*5B
$GPGSA,A,3,03,06,16,18,19,21,22,,,,,,2.2,1.0,2.0*31
$GPGGA,075232.87,4740.477534,N,00934.748160,E,1,07,1.0,506.0,M,-0.546000,M,-1.1960505,0130*40
$GPRMC,075232.87,A,4740.477534,N,00934.748160,E,000.0,000.0,050308,,,A*5D
$GPGSA,A,3,03,06,16,18,19,21,22,,,,,,2.2,1.0,2.0*31
$GPGGA,075233.51,4740.477475,N,00934.748213,E,1,07,0.5,506.0,M,-0.549000,M,-1.1960505,0130*42
$GPRMC,075233.51,A,4740.477475,N,00934.748213,E,000.0,000.0,050308,,,A*54
$GPGSA,A,3,03,06,16,18,19,21,22,,,,,,1.1,0.5,1.0*36
$GPGGA,075234.15,4740.477419,N,00934.748260,E,1,07,0.5,506.0,M,-0.550000,M,-1.1960505,0130*43
$GPRMC,075234.15,A,4740.477419,N,00934.748260,E,000.0,000.0,050308,,,A*5D
$GPGSV,3,1,10,03,62,296,34,16,55,200,43,18,49,090,46,22,42,152,46*78
$GPGSV,3,2,10,21,38,060,41,06,35,108,33,19,32,292,25,25,12,296,23*74
$GPGSV,3,3,10,07,11,111,,15,08,046,*70
$GPGSA,A,3,03,06,16,18,19,21,22,,,,,,1.1,0.5,1.0*36
$GPGGA,075234.79,4740.477343,N,00934.748322,E,1,07,3.0,506.0,M,-0.550000,M,-1.1960505,0130*40
$GPRMC,075234.79,A,4740.477343,N,00934.748322,E,000.0,000.0,050308,,,A*58
$GPGSA,A,3,03,06,16,18,19,21,22,,,,,,6.7,3.0,6.0*36
$GPGGA,075235.43,4740.477278,N,00934.748368,E,1,07,1.0,506.0,M,-0.550000,M,-1.1960515,0130*4C
$GPRMC,075235.43,A,4740.477278,N,00934.748368,E,000.0,000.0,050308,,,A*57
$GPGSA,A,3,03,06,16,18,19,21,22,,,,,,2.2,1.0,2.0*31
$GPGGA,075236.07,4740.477214,N,00934.748411,E,1,07,1.0,506.0,M,-0.550000,M,-1.1960505,0130*4D
$GPRMC,075236.07,A,4740.477214,N,00934.748411,E,000.0,000.0,050308,,,A*57
$GPGSA,A,3,03,06,16,18,19,21,22,,,,,,2.2,1.0,2.0*31
$GPGGA,075236.71,4740.477141,N,00934.748470,E,1,07,1.0,506.0,M,-0.550000,M,-1.1960505,0130*48
$GPRMC,075236.71,A,4740.477141,N,00934.748470,E,000.0,000.0,050308,,,A*52
$GPGSA,A,3,03,06,16,18,19,21,22,,,,,,2.2,1.0,2.0*31
$GPGGA,075237.35,4740.477070,N,00934.748521,E,1,07,0.5,506.0,M,-0.550000,M,-1.1960505,0130*4B
$GPRMC,075237.35,A,4740.477070,N,00934.748521,E,000.0,000.0,050308,,,A*55
$GPGSV,3,1,10,03,62,296,34,16,55,200,44,18,49,090,46,22,42,152,46*7F
$GPGSV,3,2,10,21,38,060,40,06,35,108,39,19,32,292,28,25,12,296,26*77
$GPGSV,3,3,10,15,08,046,35,07,11,111,*76
$GPGSA,A,3,03,06,16,18,19,21,22,,,,,,1.1,0.5,1.0*36
$GPGGA,075237.99,4740.477000,N,00934.748567,E,1,07,0.5,506.0,M,-0.550000,M,-1.1960505,0130*48
$GPRMC,075237.99,A,4740.477000,N,00934.748567,E,000.0,000.0,050308,,,A*56
$GPGSA,A,3,03,06,16,18,19,21,22,,,,,,1.1,0.5,1.0*36
$GPGGA,075238.63,4740.476940,N,00934.748609,E,1,07,1.0,506.0,M,-0.549000,M,-1.1960505,0130*49
$GPRMC,075238.63,A,4740.476940,N,00934.748609,E,000.0,000.0,050308,,,A*5B
$GPGSA,A,3,03,06,16,18,19,21,22,,,,,,2.2,1.0,2.0*31
$GPGGA,075239.27,4740.476888,N,00934.748643,E,1,07,0.5,506.0,M,-0.549000,M,-1.1960505,0130*47
$GPRMC,075239.27,A,4740.476888,N,00934.748643,E,000.0,000.0,050308,,,A*51
$GPGSA,A,3,03,06,16,18,19,21,22,,,,,,1.1,0.5,1.0*36
$GPGGA,075239.91,4740.476833,N,00934.748683,E,1,07,1.0,505.0,M,-0.549000,M,-1.1960505,0130*41
$GPRMC,075239.91,A,4740.476833,N,00934.748683,E,000.0,000.0,050308,,,A*50
$GPGSA,A,3,03,06,16,18,19,21,22,,,,,,2.2,1.0,2.0*31
$GPGGA,075240.55,4740.476788,N,00934.748718,E,1,07,0.5,505.0,M,-0.549000,M,-1.1960505,0130*4F
$GPRMC,075240.55,A,4740.476788,N,00934.748718,E,000.0,000.0,050308,,,A*5A
$GPGSV,3,1,10,03,62,296,36,16,55,200,43,18,49,090,44,22,42,152,46*78
$GPGSV,3,2,10,21,38,060,41,06,35,108,33,19,32,292,24,25,12,296,31*76
$GPGSV,3,3,10,15,08,046,41,07,11,111,*75
$GPGSA,A,3,03,06,16,18,19,21,22,,,,,,1.1,0.5,1.0*36
$GPGGA,075241.19,4740.476735,N,00934.748766,E,1,07,1.0,504.0,M,-0.549000,M,-1.1960505,0130*4C
$GPRMC,075241.19,A,4740.476735,N,00934.748766,E,000.0,000.0,050308,,,A*5C
$GPGSA,A,3,03,06,16,18,19,21,22,,,,,,2.2,1.0,2.0*31
$GPGGA,075241.82,4740.476684,N,00934.748819,E,1,07,1.0,504.0,M,-0.549000,M,-1.1950505,0130*41
$GPRMC,075241.82,A,4740.476684,N,00934.748819,E,000.0,000.0,050308,,,A*52
$GPGSA,A,3,03,06,16,18,19,21,22,,,,,,2.2,1.0,2.0*31
$GPGGA,075242.46,4740.476637,N,00934.748870,E,1,07,0.5,504.0,M,-0.549000,M,-1.1950505,0130*49
$GPRMC,075242.46,A,4740.476637,N,00934.748870,E,000.0,000.0,050308,,,A*5E
$GPGSA,A,3,03,06,16,18,19,21,22,,,,,,1.1,0.5,1.0*36
$GPGGA,075243.10,4740.476591,N,00934.748917,E,1,06,0.5,504.0,M,-0.549000,M,-1.1950505,0130*45
$GPRMC,075243.10,A,4740.476591,N,00934.748917,E,000.0,000.0,050308,,,A*53
$GPGSA,A,3,03,06,16,18,21,22,,,,,,,1.1,0.5,1.0*3E
$GPGGA,075243.74,4740.476560,N,00934.748956,E,1,06,1.0,504.0,M,-0.549000,M,-1.1950505,0130*48
$GPRMC,075243.74,A,4740.476560,N,00934.748956,E,000.0,000.0,050308,,,A*5A
$GPGSV,3,1,10,03,62,296,36,16,55,200,44,18,49,090,44,22,42,152,47*7E
$GPGSV,3,2,10,21,38,060,40,06,35,108,35,19,32,292,19,25,12,296,30*7E
$GPGSV,3,3,10,15,08,046,33,07,11,111,*70
$GPGSA,A,3,03,06,16,18,21,22,,,,,,,2.2,1.0,2.0*39
$GPGGA,075244.38,4740.476537,N,00934.748984,E,1,06,0.5,504.0,M,-0.549000,M,-1.1950505,0130*4E
$GPRMC,075244.38,A,4740.476537,N,00934.748984,E,000.0,000.0,050308,,,A*58
$GPGSA,A,3,03,06,16,18,21,22,,,,,,,1.1,0.5,1.0*3E
$GPGGA,075245.03,4740.476523,N,00934.749003,E,1,06,1.0,503.0,M,-0.550000,M,-1.1960505,0130*4D
$GPRMC,075245.03,A,4740.476523,N,00934.749003,E,000.0,000.0,050308,,,A*53
$GPGSA,A,3,03,06,16,18,21,22,,,,,,,2.2,1.0,2.0*39
$GPGGA,075245.67,4740.476513,N,00934.749013,E,1,06,1.0,503.0,M,-0.550000,M,-1.1960505,0130*4D
$GPRMC,075245.67,A,4740.476513,N,00934.749013,E,000.0,000.0,050308,,,A*53
$GPGSA,A,3,03,06,16,18,21,22,,,,,,,2.2,1.0,2.0*39
$GPGGA,075246.31,4740.476510,N,00934.749011,E,1,06,0.5,503.0,M,-0.550000,M,-1.1960505,0130*48
$GPRMC,075246.31,A,4740.476510,N,00934.749011,E,000.0,000.0,050308,,,A*52
$GPGSA,A,3,03,06,16,18,21,22,,,,,,,1.1,0.5,1.0*3E
$GPGGA,075246.95,4740.476513,N,00934.748996,E,1,06,1.0,503.0,M,-0.550000,M,-1.1960505,0130*46
$GPRMC,075246.95,A,4740.476513,N,00934.748996,E,000.0,000.0,050308,,,A*58
$GPGSV,3,1,10,03,62,296,36,16,55,200,44,18,49,090,44,22,42,152,47*7E
$GPGSV,3,2,10,21,38,060,40,06,35,108,36,19,32,292,15,25,12,296,31*70
$GPGSV,3,3,10,15,08,046,39,07,11,111,*7A
$GPGSA,A,3,03,06,16,18,21,22,,,,,,,2.2,1.0,2.0*39
$GPGGA,075247.59,4740.476518,N,00934.748975,E,1,06,0.5,503.0,M,-0.550000,M,-1.1960505,0130*45
$GPRMC,075247.59,A,4740.476518,N,00934.748975,E,000.0,000.0,050308,,,A*5F
$GPGSA,A,3,03,06,16,18,21,22,,,,,,,1.1,0.5,1.0*3E
$GPGGA,075248.23,4740.476531,N,00934.748962,E,1,06,0.5,503.0,M,-0.550000,M,-1.1960505,0130*4A
$GPRMC,075248.23,A,4740.476531,N,00934.748962,E,000.0,000.0,050308,,,A*50
$GPGSA,A,3,03,06,16,18,21,22,,,,,,,1.1,0.5,1.0*3E
$GPGGA,075248.87,4740.476560,N,00934.748950,E,1,06,0.5,503.0,M,-0.550000,M,-1.1960505,0130*41
$GPRMC,075248.87,A,4740.476560,N,00934.748950,E,000.0,000.0,050308,,,A*5B
$GPGSA,A,3,03,06,16,18,21,22,,,,,,,1.1,0.5,1.0*3E
$GPGGA,075249.51,4740.476579,N,00934.748937,E,1,06,0.5,503.0,M,-0.550000,M,-1.1960505,0130*42
$GPRMC,075249.51,A,4740.476579,N,00934.748937,E,000.0,000.0,050308,,,A*58
$GPGSA,A,3,03,06,16,18,21,22,,,,,,,1.1,0.5,1.0*3E
$GPGGA,075250.15,4740.476610,N,00934.748923,E,1,06,0.5,503.0,M,-0.550000,M,-1.1960505,0130*43
$GPRMC,075250.15,A,4740.476610,N,00934.748923,E,000.0,000.0,050308,,,A*59
$GPGSV,3,1,10,03,62,296,36,16,55,200,44,18,49,090,44,22,42,152,47*7E
$GPGSV,3,2,10,21,38,060,39,06,35,108,36,25,12,296,31,15,08,046,35*72
$GPGSV,3,3,10,19,32,292,,07,11,111,*7E
$GPGSA,A,3,03,06,16,18,21,22,,,,,,,1.1,0.5,1.0*3E
$GPGGA,075250.79,4740.476628,N,00934.748907,E,1,06,0.5,503.0,M,-0.550000,M,-1.1960505,0130*44
$GPRMC,075250.79,A,4740.476628,N,00934.748907,E,000.0,000.0,050308,,,A*5E
$GPGSA,A,3,03,06,16,18,21,22,,,,,,,1.1,0.5,1.0*3E
$GPGGA,075251.43,4740.476629,N,00934.748895,E,1,06,0.5,503.0,M,-0.550000,M,-1.1960505,0130*47
$GPRMC,075251.43,A,4740.476629,N,00934.748895,E,000.0,000.0,050308,,,A*5D
$GPGSA,A,3,03,06,16,18,21,22,,,,,,,1.1,0.5,1.0*3E
$GPGGA,075252.07,4740.476609,N,00934.748896,E,1,06,1.0,502.0,M,-0.550000,M,-1.1960505,0130*40
$GPRMC,075252.07,A,4740.476609,N,00934.748896,E,000.0,000.0,050308,,,A*5F
$GPGSA,A,3,03,06,16,18,21,22,,,,,,,2.2,1.0,2.0*39
$GPGGA,075252.71,4740.476577,N,00934.748901,E,1,06,1.0,502.0,M,-0.550000,M,-1.1960505,0130*44
$GPRMC,075252.71,A,4740.476577,N,00934.748901,E,000.0,000.0,050308,,,A*5B
$GPGSA,A,3,03,06,16,18,21,22,,,,,,,2.2,1.0,2.0*39
$GPGGA,075253.35,4740.476544,N,00934.748904,E,1,06,1.0,501.0,M,-0.550000,M,-1.1960505,0130*43
$GPRMC,075253.35,A,4740.476544,N,00934.748904,E,000.0,000.0,050308,,,A*5F
$GPGSV,3,1,10,03,62,296,36,16,55,200,44,18,49,090,44,22,42,152,47*7E
$GPGSV,3,2,10,21,38,060,40,06,35,108,36,25,12,296,34,15,08,046,37*7B
$GPGSV,3,3,10,19,32,292,,07,11,111,*7E
$GPGSA,A,3,03,06,16,18,21,22,,,,,,,2.2,1.0,2.0*39
$GPGGA,075253.99,4740.476500,N,00934.748915,E,1,06,0.5,501.0,M,-0.550000,M,-1.1960505,0130*41
$GPRMC,075253.99,A,4740.476500,N,00934.748915,E,000.0,000.0,050308,,,A*59
$GPGSA,A,3,03,06,16,18,21,22,,,,,,,1.1,0.5,1.0*3E
$GPGGA,075254.63,4740.476448,N,00934.748931,E,1,06,0.5,501.0,M,-0.550000,M,-1.1950505,0130*4B
$GPRMC,075254.63,A,4740.476448,N,00934.748931,E,000.0,000.0,050308,,,A*50
$GPGSA,A,3,03,06,16,18,21,22,,,,,,,1.1,0.5,1.0*3E
$GPGGA,075255.26,4740.476399,N,00934.748950,E,1,06,1.0,501.0,M,-0.550000,M,-1.1950505,0130*43
$GPRMC,075255.26,A,4740.476399,N,00934.748950,E,000.0,000.0,050308,,,A*5C
$GPGSA,A,3,03,06,16,18,21,22,,,,,,,2.2,1.0,2.0*39
$GPGGA,075255.90,4740.476345,N,00934.748970,E,1,06,0.5,501.0,M,-0.550000,M,-1.1950505,0130*49
$GPRMC,075255.90,A,4740.476345,N,00934.748970,E,000.0,000.0,050308,,,A*52
$GPGSA,A,3,03,06,16,18,21,22,,,,,,,1.1,0.5,1.0*3E
$GPGGA,075256.54,4740.476285,N,00934.748991,E,1,06,0.5,501.0,M,-0.550000,M,-1.1950505,0130*40
$GPRMC,075256.54,A,4740.476285,N,00934.748991,E,000.0,000.0,050308,,,A*5B
$GPGSV,3,1,10,03,62,296,36,16,55,200,44,18,49,090,43,22,42,152,47*79
$GPGSV,3,2,10,21,38,060,40,06,35,108,36,25,12,296,33,15,08,046,40*7C
$GPGSV,3,3,10,19,32,292,,07,11,111,*7E
$GPGSA,A,3,03,06,16,18,21,22,,,,,,,1.1,0.5,1.0*3E
$GPGGA,075257.18,4740.476225,N,00934.749013,E,1,06,0.5,501.0,M,-0.550000,M,-1.1950505,0130*41
$GPRMC,075257.18,A,4740.476225,N,00934.749013,E,000.0,000.0,050308,,,A*5A
$GPGSA,A,3,03,06,16,18,21,22,,,,,,,1.1,0.5,1.0*3E
$GPGGA,075257.82,4740.476160,N,00934.749037,E,1,06,0.5,501.0,M,-0.550000,M,-1.1950505,0130*46
$GPRMC,075257.82,A,4740.476160,N,00934.749037,E,000.0,000.0,050308,,,A*5D
$GPGSA,A,3,03,06,16,18,21,22,,,,,,,1.1,0.5,1.0*3E
$GPGGA,075258.46,4740.476095,N,00934.749057,E,1,06,0.5,501.0,M,-0.550000,M,-1.1950505,0130*4C
$GPRMC,075258.46,A,4740.476095,N,00934.749057,E,000.0,000.0,050308,,,A*57
$GPGSA,A,3,03,06,16,18,21,22,,,,,,,1.1,0.5,1.0*3E
$GPGGA,075259.10,4740.476037,N,00934.749072,E,1,06,0.5,502.0,M,-0.550000,M,-1.1950505,0130*42
$GPRMC,075259.10,A,4740.476037,N,00934.749072,E,000.0,000.0,050308,,,A*5A
$GPGSA,A,3,03,06,16,18,21,22,,,,,,,1.1,0.5,1.0*3E
$GPGGA,075259.75,4740.475984,N,00934.749084,E,1,06,0.5,502.0,M,-0.550000,M,-1.1950505,0130*4A
$GPRMC,075259.75,A,4740.475984,N,00934.749084,E,000.0,000.0,050308,,,A*52
$GPGSV,3,1,10,03,62,296,35,16,55,200,44,18,49,090,43,22,42,152,47*7A
$GPGSV,3,2,10,21,38,060,40,06,35,108,35,25,12,296,35,15,08,046,40*79
$GPGSV,3,3,10,19,32,292,,07,11,111,*7E
$GPGSA,A,3,03,06,16,18,21,22,,,,,,,1.1,0.5,1.0*3E
$GPGGA,075300.38,4740.475934,N,00934.749096,E,1,06,0.5,502.0,M,-0.551000,M,-1.1950505,0130*47
$GPRMC,075300.38,A,4740.475934,N,00934.749096,E,000.0,000.0,050308,,,A*5E
$GPGSA,A,3,03,06,16,18,21,22,,,,,,,1.1,0.5,1.0*3E
$GPGGA,075301.02,4740.475896,N,00934.749119,E,1,06,0.5,502.0,M,-0.551000,M,-1.1950505,0130*40
$GPRMC,075301.02,A,4740.475896,N,00934.749119,E,000.0,000.0,050308,,,A*59
$GPGSA,A,3,03,06,16,18,21,22,,,,,,,1.1,0.5,1.0*3E
$GPGGA,075301.66,4740.475860,N,00934.749139,E,1,06,0.5,503.0,M,-0.551000,M,-1.1950505,0130*48
$GPRMC,075301.66,A,4740.475860,N,00934.749139,E,000.0,000.0,050308,,,A*50
$GPGSA,A,3,03,06,16,18,21,22,,,,,,,1.1,0.5,1.0*3E
$GPGGA,075302.30,4740.475823,N,00934.749166,E,1,06,0.5,503.0,M,-0.551000,M,-1.1950505,0130*45
$GPRMC,075302.30,A,4740.475823,N,00934.749166,E,000.0,000.0,050308,,,A*5D
$GPGSA,A,3,03,06,16,18,21,22,,,,,,,1.1,0.5,1.0*3E
$GPGGA,075302.94,4740.475794,N,00934.749190,E,1,06,0.5,503.0,M,-0.551000,M,-1.1950505,0130*41
$GPRMC,075302.94,A,4740.475794,N,00934.749190,E,000.0,000.0,050308,,,A*59
$GPGSV,3,1,10,03,62,296,35,16,55,200,44,18,49,090,43,22,42,152,47*7A
$GPGSV,3,2,10,21,38,060,41,06,35,108,35,25,12,296,34,15,08,046,37*79
$GPGSV,3,3,10,19,32,292,,07,11,111,*7E
$GPGSA,A,3,03,06,16,18,21,22,,,,,,,1.1,0.5,1.0*3E
$GPGGA,075303.58,4740.475768,N,00934.749214,E,1,06,1.0,504.0,M,-0.552000,M,-1.1950505,0130*4C
$GPRMC,075303.58,A,4740.475768,N,00934.749214,E,000.0,000.0,050308,,,A*54
$GPGSA,A,3,03,06,16,18,21,22,,,,,,,2.2,1.0,2.0*39
$GPGGA,075304.22,4740.475744,N,00934.749239,E,1,06,0.5,504.0,M,-0.551000,M,-1.1950505,0130*40
$GPRMC,075304.22,A,4740.475744,N,00934.749239,E,000.0,000.0,050308,,,A*5F
$GPGSA,A,3,03,06,16,18,21,22,,,,,,,1.1,0.5,1.0*3E
$GPGGA,075305.33,4740.475730,N,00934.749271,E,1,07,1.0,504.0,M,-0.551000,M,-1.1950515,0130*4A
$GPRMC,075305.33,A,4740.475730,N,00934.749271,E,000.0,000.0,050308,,,A*51
$GPGSA,A,3,03,06,16,18,21,22,25,,,,,,2.2,1.0,2.0*3E
$GPGGA,075306.11,4740.475717,N,00934.749300,E,1,07,1.0,505.0,M,-0.551000,M,-1.1950515,0130*4A
$GPRMC,075306.11,A,4740.475717,N,00934.749300,E,000.0,000.0,050308,,,A*50
$GPGSA,A,3,03,06,16,18,21,22,25,,,,,,2.2,1.0,2.0*3E
$GPGGA,075306.93,4740.475715,N,00934.749331,E,1,07,1.0,505.0,M,-0.550000,M,-1.1950515,0130*41
$GPRMC,075306.93,A,4740.475715,N,00934.749331,E,000.0,000.0,050308,,,A*5A
$GPGSV,3,1,10,03,63,296,36,16,55,198,46,18,49,090,44,22,42,150,39*74
$GPGSV,3,2,10,21,38,060,39,06,35,108,35,25,12,296,30,15,08,046,36*73
$GPGSV,3,3,10,19,32,292,,07,11,111,*7E
$GPGSA,A,3,03,06,16,18,21,22,25,,,,,,2.2,1.0,2.0*3E
$GPGGA,075307.77,4740.475713,N,00934.749368,E,1,07,1.0,505.0,M,-0.551000,M,-1.1950515,0130*41
$GPRMC,075307.77,A,4740.475713,N,00934.749368,E,000.0,000.0,050308,,,A*5B
$GPGSA,A,3,03,06,16,18,21,22,25,,,,,,2.2,1.0,2.0*3E
$GPGGA,075308.61,4740.475721,N,00934.749407,E,1,07,3.0,505.0,M,-0.551000,M,-1.1950505,0130*45
$GPRMC,075308.61,A,4740.475721,N,00934.749407,E,000.0,000.0,050308,,,A*5C
$GPGSA,A,3,03,06,16,18,21,22,25,,,,,,6.7,3.0,6.0*39
$GPGGA,075309.47,4740.475737,N,00934.749442,E,1,07,3.0,505.0,M,-0.552000,M,-1.1950515,0130*44
$GPRMC,075309.47,A,4740.475737,N,00934.749442,E,000.0,000.0,050308,,,A*5F
$GPGSA,A,3,03,06,16,18,21,22,25,,,,,,6.7,3.0,6.0*39
$GPGGA,075310.31,4740.475759,N,00934.749482,E,1,07,3.0,505.0,M,-0.552000,M,-1.1950505,0130*48
$GPRMC,075310.31,A,4740.475759,N,00934.749482,E,000.0,000.0,050308,,,A*52
$GPGSA,A,3,03,06,16,18,21,22,25,,,,,,6.7,3.0,6.0*39
$GPGGA,075311.15,4740.475779,N,00934.749534,E,1,06,3.0,505.0,M,-0.552000,M,-1.1950515,0130*41
$GPRMC,075311.15,A,4740.475779,N,00934.749534,E,000.0,000.0,050308,,,A*5B
$GPGSV,3,1,10,03,63,296,35,16,55,198,47,18,49,090,46,21,38,060,37*76
$GPGSV,3,2,10,06,35,108,32,25,12,296,30,22,42,150,27,15,08,046,37*76
$GPGSV,3,3,10,19,32,292,,07,11,111,*7E
$GPGSA,A,3,03,06,16,18,21,25,,,,,,,6.7,3.0,6.0*39
$GPGGA,075312.02,4740.475812,N,00934.749585,E,1,06,3.0,505.0,M,-0.552000,M,-1.1950515,0130*4C
$GPRMC,075312.02,A,4740.475812,N,00934.749585,E,000.0,000.0,050308,,,A*56
$GPGSA,A,3,03,06,16,18,21,25,,,,,,,6.7,3.0,6.0*39
$GPGGA,075312.95,4740.475834,N,00934.749648,E,1,06,3.0,505.0,M,-0.552000,M,-1.1950515,0130*44
$GPRMC,075312.95,A,4740.475834,N,00934.749648,E,000.0,000.0,050308,,,A*5E
$GPGSA,A,3,03,06,16,18,21,25,,,,,,,6.7,3.0,6.0*39
$GPGGA,075313.81,4740.475855,N,00934.749689,E,1,06,3.0,504.0,M,-0.552000,M,-1.1950515,0130*4B
$GPRMC,075313.81,A,4740.475855,N,00934.749689,E,000.0,000.0,050308,,,A*50
$GPGSA,A,3,03,06,16,18,21,25,,,,,,,6.7,3.0,6.0*39
$GPGGA,075314.72,4740.475878,N,00934.749734,E,1,06,3.0,504.0,M,-0.553000,M,-1.1950515,0130*49
$GPRMC,075314.72,A,4740.475878,N,00934.749734,E,000.0,000.0,050308,,,A*53
$GPGSA,A,3,03,06,16,18,21,25,,,,,,,6.7,3.0,6.0*39
$GPGGA,075315.54,4740.475903,N,00934.749788,E,1,06,3.0,504.0,M,-0.553000,M,-1.1950515,0130*46
$GPRMC,075315.54,A,4740.475903,N,00934.749788,E,000.0,000.0,050308,,,A*5C
$GPGSV,3,1,10,03,63,296,37,16,55,198,46,18,49,090,44,21,38,060,37*77
$GPGSV,3,2,10,06,35,108,25,25,12,296,31,22,42,150,15,15,08,046,37*70
$GPGSV,3,3,10,19,32,292,,07,11,111,*7E
$GPGSA,A,3,03,06,16,18,21,25,,,,,,,6.7,3.0,6.0*39
$GPGGA,075316.35,4740.475911,N,00934.749870,E,1,06,3.0,504.0,M,-0.553000,M,-1.1950515,0130*49
$GPRMC,075316.35,A,4740.475911,N,00934.749870,E,000.0,000.0,050308,,,A*53
$GPGSA,A,3,03,06,16,18,21,25,,,,,,,6.7,3.0,6.0*39
$GPGGA,075317.17,4740.475920,N,00934.749953,E,1,06,1.0,504.0,M,-0.553000,M,-1.1950515,0130*48
$GPRMC,075317.17,A,4740.475920,N,00934.749953,E,000.0,000.0,050308,,,A*50
$GPGSA,A,3,03,06,16,18,21,25,,,,,,,2.2,1.0,2.0*3E
$GPGGA,075317.98,4740.475932,N,00934.750034,E,1,06,1.0,504.0,M,-0.554000,M,-1.1950515,0130*4B
$GPRMC,075317.98,A,4740.475932,N,00934.750034,E,000.0,000.0,050308,,,A*54
$GPGSA,A,3,03,06,16,18,21,25,,,,,,,2.2,1.0,2.0*3E
$GPGGA,075318.79,4740.475948,N,00934.750106,E,1,06,3.0,503.0,M,-0.554000,M,-1.1950515,0130*43
$GPRMC,075318.79,A,4740.475948,N,00934.750106,E,000.0,000.0,050308,,,A*59
$GPGSA,A,3,03,06,16,18,21,25,,,,,,,6.7,3.0,6.0*39
$GPGGA,075319.61,4740.475975,N,00934.750164,E,1,06,1.0,503.0,M,-0.554000,M,-1.1950515,0130*43
$GPRMC,075319.61,A,4740.475975,N,00934.750164,E,000.0,000.0,050308,,,A*5B
$GPGSV,3,1,10,03,63,296,35,16,55,198,46,18,49,090,46,21,38,060,40*77
$GPGSV,3,2,10,06,35,108,26,25,12,296,28,15,08,046,35,22,42,150,*7D
$GPGSV,3,3,10,19,32,292,,07,11,111,*7E
$GPGSA,A,3,03,06,16,18,21,25,,,,,,,2.2,1.0,2.0*3E
$GPGGA,075320.47,4740.476013,N,00934.750216,E,1,06,0.5,503.0,M,-0.554000,M,-1.1950515,0130*45
$GPRMC,075320.47,A,4740.476013,N,00934.750216,E,000.0,000.0,050308,,,A*59
$GPGSA,A,3,03,06,16,18,21,25,,,,,,,1.1,0.5,1.0*39
$GPGGA,075321.28,4740.476051,N,00934.750262,E,1,06,1.0,503.0,M,-0.554000,M,-1.1950515,0130*4C
$GPRMC,075321.28,A,4740.476051,N,00934.750262,E,000.0,000.0,050308,,,A*54
$GPGSA,A,3,03,06,16,18,21,25,,,,,,,2.2,1.0,2.0*3E
$GPGGA,075322.14,4740.476118,N,00934.750285,E,1,06,3.0,503.0,M,-0.555000,M,-1.1950515,0130*46
$GPRMC,075322.14,A,4740.476118,N,00934.750285,E,000.0,000.0,050308,,,A*5D
$GPGSA,A,3,03,06,16,18,21,25,,,,,,,6.7,3.0,6.0*39
$GPGGA,075322.96,4740.476213,N,00934.750278,E,1,06,3.0,503.0,M,-0.555000,M,-1.1950515,0130*46
$GPRMC,075322.96,A,4740.476213,N,00934.750278,E,000.0,000.0,050308,,,A*5D
$GPGSA,A,3,03,06,16,18,21,25,,,,,,,6.7,3.0,6.0*39
$GPGGA,075323.79,4740.476353,N,00934.750239,E,1,06,3.0,503.0,M,-0.555000,M,-1.1950515,0130*46
$GPRMC,075323.79,A,4740.476353,N,00934.750239,E,000.0,000.0,050308,,,A*5D
$GPGSV,3,1,10,03,63,296,35,16,55,198,43,18,49,090,46,21,38,060,36*73
$GPGSV,3,2,10,06,35,108,31,25,12,296,31,15,08,046,39,22,42,150,*7F
$GPGSV,3,3,10,19,32,292,,07,11,111,*7E
$GPGSA,A,3,03,06,16,18,21,25,,,,,,,6.7,3.0,6.0*39
$GPGGA,075324.61,4740.476496,N,00934.750205,E,1,06,3.0,503.0,M,-0.555000,M,-1.1950515,0130*49
$GPRMC,075324.61,A,4740.476496,N,00934.750205,E,000.0,000.0,050308,,,A*52
$GPGSA,A,3,03,06,16,18,21,25,,,,,,,6.7,3.0,6.0*39
$GPGGA,075325.43,4740.476643,N,00934.750157,E,1,06,1.0,503.0,M,-0.555000,M,-1.1950515,0130*44
$GPRMC,075325.43,A,4740.476643,N,00934.750157,E,000.0,000.0,050308,,,A*5D
$GPGSA,A,3,03,06,16,18,21,25,,,,,,,2.2,1.0,2.0*3E
$GPGGA,075326.25,4740.476807,N,00934.750078,E,1,06,1.0,502.0,M,-0.556000,M,-1.1950515,0130*47
$GPRMC,075326.25,A,4740.476807,N,00934.750078,E,000.0,000.0,050308,,,A*5C
$GPGSA,A,3,03,06,16,18,21,25,,,,,,,2.2,1.0,2.0*3E
$GPGGA,075327.13,4740.476958,N,00934.749999,E,1,06,3.0,502.0,M,-0.556000,M,-1.1950515,0130*44
$GPRMC,075327.13,A,4740.476958,N,00934.749999,E,000.0,000.0,050308,,,A*5D
$GPGSA,A,3,03,06,16,18,21,25,,,,,,,6.7,3.0,6.0*39
$GPGGA,075327.95,4740.476958,N,00934.749999,E,1,06,1.0,502.0,M,-0.556000,M,-1.1950515,0130*48
$GPRMC,075327.95,A,4740.476958,N,00934.749999,E,000.0,000.0,050308,,,A*53
$GPGSV,3,1,10,03,63,296,36,16,55,198,43,18,49,090,46,21,38,060,37*71
$GPGSV,3,2,10,06,35,108,28,25,12,296,32,15,08,046,39,22,42,150,*74
$GPGSV,3,3,10,19,32,292,,07,11,111,*7E
$GPGSA,A,3,03,06,16,18,21,25,,,,,,,2.2,1.0,2.0*3E
$GPGGA,075328.84,4740.477242,N,00934.749849,E,1,06,3.0,501.0,M,-0.556000,M,-1.1950515,0130*4B
$GPRMC,075328.84,A,4740.477242,N,00934.749849,E,000.0,000.0,050308,,,A*51
$GPGSA,A,3,03,06,16,18,21,25,,,,,,,6.7,3.0,6.0*39
$GPGGA,075329.65,4740.477365,N,00934.749793,E,1,07,3.0,500.0,M,-0.556000,M,-1.1950515,0130*49
$GPRMC,075329.65,A,4740.477365,N,00934.749793,E,000.0,000.0,050308,,,A*53
$GPGSA,A,3,03,06,15,16,18,21,25,,,,,,6.7,3.0,6.0*3D
$GPGGA,075330.49,4740.477471,N,00934.749756,E,1,07,3.0,500.0,M,-0.556000,M,-1.1950505,0130*45
$GPRMC,075330.49,A,4740.477471,N,00934.749756,E,000.0,000.0,050308,,,A*5E
$GPGSA,A,3,03,06,15,16,18,21,25,,,,,,6.7,3.0,6.0*3D
$GPGGA,075331.34,4740.477551,N,00934.749750,E,1,07,3.0,500.0,M,-0.556000,M,-1.1950505,0130*4B
$GPRMC,075331.34,A,4740.477551,N,00934.749750,E,000.0,000.0,050308,,,A*50
$GPGSA,A,3,03,06,15,16,18,21,25,,,,,,6.7,3.0,6.0*3D
$GPGGA,075332.25,4740.477625,N,00934.749745,E,1,07,3.0,499.0,M,-0.555000,M,-1.1950505,0130*4E
$GPRMC,075332.25,A,4740.477625,N,00934.749745,E,000.0,000.0,050308,,,A*57
$GPGSV,3,1,10,03,63,296,37,16,55,198,43,18,49,090,46,21,38,060,36*71
$GPGSV,3,2,10,06,35,108,34,25,12,296,32,15,08,046,40,22,42,150,*77
$GPGSV,3,3,10,19,32,292,,07,11,111,*7E
$GPGSA,A,3,03,06,15,16,18,21,25,,,,,,6.7,3.0,6.0*3D
$GPGGA,075333.15,4740.477687,N,00934.749747,E,1,07,3.0,499.0,M,-0.555000,M,-1.1950505,0130*46
$GPRMC,075333.15,A,4740.477687,N,00934.749747,E,000.0,000.0,050308,,,A*5F
$GPGSA,A,3,03,06,15,16,18,21,25,,,,,,6.7,3.0,6.0*3D
$GPGGA,075334.00,4740.477727,N,00934.749770,E,1,07,3.0,499.0,M,-0.555000,M,-1.1940505,0130*4B
$GPRMC,075334.00,A,4740.477727,N,00934.749770,E,000.0,000.0,050308,,,A*53
$GPGSA,A,3,03,06,15,16,18,21,25,,,,,,6.7,3.0,6.0*3D
$GPGGA,075334.83,4740.477757,N,00934.749797,E,1,07,1.0,498.0,M,-0.557000,M,-1.1940505,0130*4F
$GPRMC,075334.83,A,4740.477757,N,00934.749797,E,000.0,000.0,050308,,,A*56
$GPGSA,A,3,03,06,15,16,18,21,25,,,,,,2.2,1.0,2.0*3A
$GPGGA,075335.71,4740.477773,N,00934.749834,E,1,07,3.0,498.0,M,-0.558000,M,-1.1940505,0130*4E
$GPRMC,075335.71,A,4740.477773,N,00934.749834,E,000.0,000.0,050308,,,A*5A
$GPGSA,A,3,03,06,15,16,18,21,25,,,,,,6.7,3.0,6.0*3D
$GPGGA,075336.55,4740.477784,N,00934.749869,E,1,07,0.5,498.0,M,-0.558000,M,-1.1940505,0130*4D
$GPRMC,075336.55,A,4740.477784,N,00934.749869,E,000.0,000.0,050308,,,A*5F
$GPGSV,3,1,10,03,63,296,36,16,55,198,43,18,49,090,46,21,38,060,36*70
$GPGSV,3,2,10,06,35,108,35,25,12,296,31,15,08,046,40,22,42,150,*75
$GPGSV,3,3,10,19,32,292,,07,11,111,*7E
$GPGSA,A,3,03,06,15,16,18,21,25,,,,,,1.1,0.5,1.0*3D
$GPGGA,075337.41,4740.477786,N,00934.749901,E,1,07,1.0,498.0,M,-0.559000,M,-1.1940505,0130*41
$GPRMC,075337.41,A,4740.477786,N,00934.749901,E,000.0,000.0,050308,,,A*56
$GPGSA,A,3,03,06,15,16,18,21,25,,,,,,2.2,1.0,2.0*3A
$GPGGA,075338.29,4740.477799,N,00934.749936,E,1,07,3.0,497.0,M,-0.559000,M,-1.1940515,0130*46
$GPRMC,075338.29,A,4740.477799,N,00934.749936,E,000.0,000.0,050308,,,A*5D
$GPGSA,A,3,03,06,15,16,18,21,25,,,,,,6.7,3.0,6.0*3D
$GPGGA,075339.21,4740.477827,N,00934.749958,E,1,07,1.0,497.0,M,-0.559000,M,-1.1940505,0130*4E
$GPRMC,075339.21,A,4740.477827,N,00934.749958,E,000.0,000.0,050308,,,A*56
$GPGSA,A,3,03,06,15,16,18,21,25,,,,,,2.2,1.0,2.0*3A
$GPGGA,075340.12,4740.477849,N,00934.749977,E,1,07,0.5,497.0,M,-0.559000,M,-1.1940505,0130*41
$GPRMC,075340.12,A,4740.477849,N,00934.749977,E,000.0,000.0,050308,,,A*5D
$GPGSA,A,3,03,06,15,16,18,21,25,,,,,,1.1,0.5,1.0*3D
$GPGGA,075340.97,4740.477857,N,00934.749993,E,1,07,1.0,498.0,M,-0.559000,M,-1.1940515,0130*43
$GPRMC,075340.97,A,4740.477857,N,00934.749993,E,000.0,000.0,050308,,,A*55
$GPGSV,3,1,10,03,63,296,41,16,55,198,43,18,49,090,42,21,38,060,29*7A
$GPGSV,3,2,10,06,35,108,36,25,12,296,28,15,08,046,39,22,42,150,*70
$GPGSV,3,3,10,19,32,292,,07,11,111,*7E
$GPGSA,A,3,03,06,15,16,18,21,25,,,,,,2.2,1.0,2.0*3A
$GPGGA,075341.83,4740.477870,N,00934.749999,E,1,07,0.5,498.0,M,-0.559000,M,-1.1940505,0130*4D
$GPRMC,075341.83,A,4740.477870,N,00934.749999,E,000.0,000.0,050308,,,A*5E
$GPGSA,A,3,03,06,15,16,18,21,25,,,,,,1.1,0.5,1.0*3D
$GPGGA,075342.65,4740.477876,N,00934.750006,E,1,07,0.5,498.0,M,-0.559000,M,-1.1940505,0130*47
$GPRMC,075342.65,A,4740.477876,N,00934.750006,E,000.0,000.0,050308,,,A*54
$GPGSA,A,3,03,06,15,16,18,21,25,,,,,,1.1,0.5,1.0*3D
$GPGGA,075343.54,4740.477881,N,00934.750002,E,1,07,1.0,498.0,M,-0.560000,M,-1.1940505,0130*46
$GPRMC,075343.54,A,4740.477881,N,00934.750002,E,000.0,000.0,050308,,,A*5B
$GPGSA,A,3,03,06,15,16,18,21,25,,,,,,2.2,1.0,2.0*3A
$GPGGA,075344.36,4740.477876,N,00934.749991,E,1,07,1.0,498.0,M,-0.559000,M,-1.1940515,0130*4D
$GPRMC,075344.36,A,4740.477876,N,00934.749991,E,000.0,000.0,050308,,,A*5B
$GPGSA,A,3,03,06,15,16,18,21,25,,,,,,2.2,1.0,2.0*3A
$GPGGA,075345.18,4740.477864,N,00934.749974,E,1,07,3.0,498.0,M,-0.559000,M,-1.1940515,0130*4A
$GPRMC,075345.18,A,4740.477864,N,00934.749974,E,000.0,000.0,050308,,,A*5E
$GPGSV,3,1,10,03,63,296,43,16,55,198,41,18,49,090,40,21,38,060,26*77
$GPGSV,3,2,10,06,35,108,29,25,12,296,25,15,08,046,35,22,42,150,*7F
$GPGSV,3,3,10,19,32,292,,07,11,111,*7E
$GPGSA,A,3,03,06,15,16,18,21,25,,,,,,6.7,3.0,6.0*3D
$GPGGA,075346.03,4740.477846,N,00934.749950,E,1,07,3.0,498.0,M,-0.560000,M,-1.1940515,0130*4F
$GPRMC,075346.03,A,4740.477846,N,00934.749950,E,000.0,000.0,050308,,,A*51
$GPGSA,A,3,03,06,15,16,18,21,25,,,,,,6.7,3.0,6.0*3D
$GPGGA,075346.84,4740.477818,N,00934.749923,E,1,07,1.0,498.0,M,-0.559000,M,-1.1940515,0130*47
$GPRMC,075346.84,A,4740.477818,N,00934.749923,E,000.0,000.0,050308,,,A*51
$GPGSA,A,3,03,06,15,16,18,21,25,,,,,,2.2,1.0,2.0*3A
$GPGGA,075347.66,4740.477756,N,00934.749900,E,1,07,1.0,498.0,M,-0.559000,M,-1.1940515,0130*4E
$GPRMC,075347.66,A,4740.477756,N,00934.749900,E,000.0,000.0,050308,,,A*58
$GPGSA,A,3,03,06,15,16,18,21,25,,,,,,2.2,1.0,2.0*3A
$GPGGA,075348.47,4740.477680,N,00934.749877,E,1,07,3.0,498.0,M,-0.560000,M,-1.1940515,0130*41
$GPRMC,075348.47,A,4740.477680,N,00934.749877,E,000.0,000.0,050308,,,A*5F
$GPGSA,A,3,03,06,15,16,18,21,25,,,,,,6.7,3.0,6.0*3D
$GPGGA,075349.31,4740.477588,N,00934.749858,E,1,07,0.5,498.0,M,-0.560000,M,-1.1940515,0130*41
$GPRMC,075349.31,A,4740.477588,N,00934.749858,E,000.0,000.0,050308,,,A*59
$GPGSV,3,1,10,03,63,296,44,16,55,198,41,18,49,090,43,21,38,060,30*74
$GPGSV,3,2,10,06,35,108,32,25,12,296,29,15,08,046,41,22,42,150,*7A
$GPGSV,3,3,10,19,32,292,,07,11,111,*7E
$GPGSA,A,3,03,06,15,16,18,21,25,,,,,,1.1,0.5,1.0*3D
$GPGGA,075350.15,4740.477482,N,00934.749854,E,1,07,1.0,498.0,M,-0.559000,M,-1.1940515,0130*46
$GPRMC,075350.15,A,4740.477482,N,00934.749854,E,000.0,000.0,050308,,,A*50
$GPGSA,A,3,03,06,15,16,18,21,25,,,,,,2.2,1.0,2.0*3A
$GPGGA,075351.01,4740.477380,N,00934.749848,E,1,07,3.0,497.0,M,-0.559000,M,-1.1940515,0130*47
$GPRMC,075351.01,A,4740.477380,N,00934.749848,E,000.0,000.0,050308,,,A*5C
$GPGSA,A,3,03,06,15,16,18,21,25,,,,,,6.7,3.0,6.0*3D
$GPGGA,075351.88,4740.477295,N,00934.749833,E,1,07,1.0,497.0,M,-0.559000,M,-1.1940515,0130*4D
$GPRMC,075351.88,A,4740.477295,N,00934.749833,E,000.0,000.0,050308,,,A*54
$GPGSA,A,3,03,06,15,16,18,21,25,,,,,,2.2,1.0,2.0*3A
$GPGGA,075352.74,4740.477220,N,00934.749816,E,1,07,0.5,496.0,M,-0.559000,M,-1.1940515,0130*41
$GPRMC,075352.74,A,4740.477220,N,00934.749816,E,000.0,000.0,050308,,,A*5D
$GPGSA,A,3,03,06,15,16,18,21,25,,,,,,1.1,0.5,1.0*3D
$GPGGA,075353.59,4740.477171,N,00934.749775,E,1,07,1.0,496.0,M,-0.561000,M,-1.1940515,0130*4D
$GPRMC,075353.59,A,4740.477171,N,00934.749775,E,000.0,000.0,050308,,,A*5E
$GPGSV,3,1,10,03,63,296,41,16,55,198,46,18,49,090,41,21,38,060,44*77
$GPGSV,3,2,10,06,35,108,26,25,12,296,21,15,08,046,37,22,42,150,*76
$GPGSV,3,3,10,19,32,292,,07,11,111,*7E
